neighborhood_name,neighborhood_clean,neighborhood_normalized,district,province,source,osm_type,lat,lon
19 Mayıs,19 mayıs,19 mayis,Aladağ,Adana,osm_overpass,suburb,36.9774268,35.3637886
2000 Evler,2000 evler,2000 evler,Aladağ,Adana,osm_overpass,suburb,37.0289578,35.2656922
Abacılar,abacılar,abacilar,Aladağ,Adana,osm_overpass,neighbourhood,37.0972102,35.1571727
Abdilli,abdilli,abdilli,Aladağ,Adana,osm_overpass,neighbourhood,37.3332623,35.231148
Abdiluşağı,abdiluşağı,abdilusagi,Aladağ,Adana,osm_overpass,neighbourhood,37.3138865,35.598557
Abdioğlu,abdioğlu,abdioglu,Aladağ,Adana,osm_overpass,quarter,36.9096872,35.5657486
Abdioğlu Cumhuriyet Mah.,abdioğlu cumhuriyet,abdioglu cumhuriyet,Aladağ,Adana,osm_overpass,suburb,36.9086652,35.5647977
Acıdere,acıdere,acidere,Aladağ,Adana,osm_overpass,suburb,36.9773106,35.5734772
Acıdere OSB,acıdere osb,acidere osb,Aladağ,Adana,osm_overpass,suburb,36.9695411,35.5961751
Adalet,adalet,adalet,Aladağ,Adana,osm_overpass,suburb,37.2615096,35.6629092
Ahmet Remzi Yüreğir,ahmet remzi yüreğir,ahmet remzi yuregir,Aladağ,Adana,osm_overpass,suburb,36.9971717,35.30375
Akdeniz,akdeniz,akdeniz,Aladağ,Adana,osm_overpass,suburb,36.7761733,35.7967353
Akkapı,akkapı,akkapi,Aladağ,Adana,osm_overpass,suburb,36.9645693,35.3077411
Akkoca,akkoca,akkoca,Aladağ,Adana,osm_overpass,neighbourhood,37.6061699,35.6210285
Akmaşat,akmaşat,akmasat,Aladağ,Adana,osm_overpass,neighbourhood,37.1786325,35.7308201
Akpınar,akpınar,akpinar,Aladağ,Adana,osm_overpass,suburb,37.5242457,35.402761
Aktaşalanı,aktaşalanı,aktasalani,Aladağ,Adana,osm_overpass,neighbourhood,38.3542087,36.2728774
Akyuva,akyuva,akyuva,Aladağ,Adana,osm_overpass,suburb,36.780647,35.8076391
Akıncılar,akıncılar,akincilar,Aladağ,Adana,osm_overpass,suburb,36.9977544,35.3522872
Aliağalar,aliağalar,aliagalar,Aladağ,Adana,osm_overpass,neighbourhood,37.3240715,35.7909898
Alidede,alidede,alidede,Aladağ,Adana,osm_overpass,suburb,36.9818835,35.3261947
Alifakılı,alifakılı,alifakili,Aladağ,Adana,osm_overpass,neighbourhood,37.5477928,35.6935501
Altıocak,altıocak,altiocak,Aladağ,Adana,osm_overpass,suburb,37.0479264,35.8166872
Anadolu,anadolu,anadolu,Aladağ,Adana,osm_overpass,suburb,36.9795181,35.352888
Arapismaildamı Yaylası,arapismaildamı yaylası,arapismaildami yaylasi,Aladağ,Adana,osm_overpass,neighbourhood,38.03705,35.96136
Arslanpaşa,arslanpaşa,arslanpasa,Aladağ,Adana,osm_overpass,suburb,37.4459481,35.8195545
Atakent,atakent,atakent,Aladağ,Adana,osm_overpass,suburb,36.9915847,35.3715133
Atatürk,atatürk,ataturk,Aladağ,Adana,osm_overpass,suburb,37.0254387,35.8097743
Avluk,avluk,avluk,Aladağ,Adana,osm_overpass,neighbourhood,37.7000699,35.75037
Ayas,ayas,ayas,Aladağ,Adana,osm_overpass,suburb,36.7688293,35.7903853
Aydemiroğlu,aydemiroğlu,aydemiroglu,Aladağ,Adana,osm_overpass,suburb,37.0330628,35.8153308
Aydınlar,aydınlar,aydinlar,Aladağ,Adana,osm_overpass,neighbourhood,36.7369233,34.9904284
Aydınlı,aydınlı,aydinli,Aladağ,Adana,osm_overpass,neighbourhood,37.3249487,35.211364
Aynalıçeşme,aynalıçeşme,aynalicesme,Aladağ,Adana,osm_overpass,neighbourhood,37.8657319,36.0378814
Ağcakise Yaylası,ağcakise yaylası,agcakise yaylasi,Aladağ,Adana,osm_overpass,neighbourhood,37.5370084,35.4255362
Ağlıboğaz,ağlıboğaz,aglibogaz,Aladağ,Adana,osm_overpass,suburb,37.473585,35.8348997
Ağpınar,ağpınar,agpinar,Aladağ,Adana,osm_overpass,neighbourhood,38.3664107,36.2438992
Aşağı Kayhan,aşağı kayhan,asagi kayhan,Aladağ,Adana,osm_overpass,neighbourhood,37.3763861,35.8267201
Aşağıyörükler,aşağıyörükler,asagiyorukler,Aladağ,Adana,osm_overpass,suburb,37.2789871,35.0648146
Bahçelievler,bahçelievler,bahcelievler,Aladağ,Adana,osm_overpass,suburb,36.9660094,35.3583812
Bahçeşehir,bahçeşehir,bahcesehir,Aladağ,Adana,osm_overpass,suburb,37.0289723,35.243785
Balcalı,balcalı,balcali,Aladağ,Adana,osm_overpass,suburb,37.0544136,35.3648913
Barbaros,barbaros,barbaros,Aladağ,Adana,osm_overpass,suburb,36.9677924,35.3225898
Barış,barış,baris,Aladağ,Adana,osm_overpass,suburb,37.0039236,35.2758979
Bağlar,bağlar,baglar,Aladağ,Adana,osm_overpass,suburb,37.4549117,35.8399848
Başak,başak,basak,Aladağ,Adana,osm_overpass,suburb,36.9833919,35.3637886
Başpınar,başpınar,baspinar,Aladağ,Adana,osm_overpass,suburb,37.521345,35.391477
Bekdeş,bekdeş,bekdes,Aladağ,Adana,osm_overpass,neighbourhood,37.6871784,35.6927615
Bekirli,bekirli,bekirli,Aladağ,Adana,osm_overpass,neighbourhood,37.1348323,36.0216379
Belbaşı,belbaşı,belbasi,Aladağ,Adana,osm_overpass,neighbourhood,38.20773,36.3474475
Belediye Evleri,belediye evleri,belediye evleri,Aladağ,Adana,osm_overpass,suburb,37.048301,35.8058431
Bey,bey,bey,Aladağ,Adana,osm_overpass,suburb,36.9659408,35.3171396
Beyazevler,beyazevler,beyazevler,Aladağ,Adana,osm_overpass,suburb,37.0308167,35.3178467
Beyceli,beyceli,beyceli,Aladağ,Adana,osm_overpass,suburb,37.0497995,35.4241271
Beşocak,beşocak,besocak,Aladağ,Adana,osm_overpass,suburb,36.9796552,35.3267097
Birkent Celiluşağı,birkent celiluşağı,birkent celilusagi,Aladağ,Adana,osm_overpass,quarter,37.2143317,35.9922677
Birkent Eskikent,birkent eskikent,birkent eskikent,Aladağ,Adana,osm_overpass,quarter,37.2082944,36.0255271
Birkent Yenikent,birkent yenikent,birkent yenikent,Aladağ,Adana,osm_overpass,quarter,37.2067221,36.0427577
Bota,bota,bota,Aladağ,Adana,osm_overpass,suburb,37.0383318,35.8103022
Boynuyoğun,boynuyoğun,boynuyogun,Aladağ,Adana,osm_overpass,suburb,37.0591562,35.4212106
Burhaniye,burhaniye,burhaniye,Aladağ,Adana,osm_overpass,suburb,37.0223033,35.8179679
Buruk,buruk,buruk,Aladağ,Adana,osm_overpass,quarter,37.0394649,35.4545561
Buruk Cumhuriyet,buruk cumhuriyet,buruk cumhuriyet,Aladağ,Adana,osm_overpass,suburb,37.0381814,35.451125
Bürücek,bürücek,burucek,Aladağ,Adana,osm_overpass,quarter,37.3482623,34.8251507
Büyükkırım,büyükkırım,buyukkirim,Aladağ,Adana,osm_overpass,suburb,37.0233561,35.8120659
Cananlı,cananlı,cananli,Aladağ,Adana,osm_overpass,neighbourhood,37.3315732,35.258925
Cemalpaşa,cemalpaşa,cemalpasa,Aladağ,Adana,osm_overpass,suburb,37.0031011,35.3295421
Cevherli,cevherli,cevherli,Aladağ,Adana,osm_overpass,neighbourhood,37.2616127,35.2591503
Cingöz,cingöz,cingoz,Aladağ,Adana,osm_overpass,neighbourhood,37.3687498,35.2619
Civantayak,civantayak,civantayak,Aladağ,Adana,osm_overpass,suburb,37.0346512,35.8119415
Cumhuriyet,cumhuriyet,cumhuriyet,Aladağ,Adana,osm_overpass,suburb,37.0156558,35.8279457
Cırnazlı,cırnazlı,cirnazli,Aladağ,Adana,osm_overpass,neighbourhood,37.5085684,35.5785853
Dadaloğlu,dadaloğlu,dadaloglu,Aladağ,Adana,osm_overpass,suburb,37.0030668,35.3632307
Damderesi,damderesi,damderesi,Aladağ,Adana,osm_overpass,neighbourhood,37.9076036,35.942502
Dağcı,dağcı,dagci,Aladağ,Adana,osm_overpass,suburb,36.9836301,35.5175035
Dağlıcak,dağlıcak,daglicak,Aladağ,Adana,osm_overpass,neighbourhood,37.5471548,35.832231
Dağlıoğlu,dağlıoğlu,daglioglu,Aladağ,Adana,osm_overpass,suburb,36.9735526,35.3109169
Dede Korkut,dede korkut,dede korkut,Aladağ,Adana,osm_overpass,suburb,36.9849688,35.3499269
Demetevler,demetevler,demetevler,Aladağ,Adana,osm_overpass,suburb,36.9982,35.2847385
Denizler,denizler,denizler,Aladağ,Adana,osm_overpass,neighbourhood,37.3153887,35.7855799
Denizli,denizli,denizli,Aladağ,Adana,osm_overpass,suburb,37.0034095,35.2989864
Dereköy,dere,dere,Aladağ,Adana,osm_overpass,neighbourhood,37.2752096,35.131398
Dervişler,dervişler,dervisler,Aladağ,Adana,osm_overpass,suburb,36.9977544,35.3628444
Devrişiye,devrişiye,devrisiye,Aladağ,Adana,osm_overpass,suburb,36.7727766,35.7928864
Doğankent,doğankent,dogankent,Aladağ,Adana,osm_overpass,quarter,36.8448092,35.3392419
Doğankent Bahçelievler Mah.,doğankent bahçelievler,dogankent bahcelievler,Aladağ,Adana,osm_overpass,suburb,36.8434321,35.3336562
Doğankent Cumhuriyet,doğankent cumhuriyet,dogankent cumhuriyet,Aladağ,Adana,osm_overpass,suburb,36.8438173,35.3413716
Doğankent Kışla Mah.,doğankent kışla,dogankent kisla,Aladağ,Adana,osm_overpass,suburb,36.8500039,35.3391147
Dumlupınar,dumlupınar,dumlupinar,Aladağ,Adana,osm_overpass,suburb,36.9804437,35.3023767
Döşeme,döşeme,doseme,Aladağ,Adana,osm_overpass,suburb,36.9950124,35.3137064
Elifçeler,elifçeler,elifceler,Aladağ,Adana,osm_overpass,neighbourhood,37.4126414,35.5251503
Emek,emek,emek,Aladağ,Adana,osm_overpass,suburb,37.0405565,35.8318717
Emirgazi,emirgazi,emirgazi,Aladağ,Adana,osm_overpass,neighbourhood,38.1616405,36.0203482
Emirler,emirler,emirler,Aladağ,Adana,osm_overpass,neighbourhood,37.9840078,35.990138
Eseler,eseler,eseler,Aladağ,Adana,osm_overpass,neighbourhood,37.5425527,35.6358826
Esentepe,esentepe,esentepe,Aladağ,Adana,osm_overpass,suburb,37.0373273,35.4145471
Esirmek,esirmek,esirmek,Aladağ,Adana,osm_overpass,neighbourhood,37.7320176,36.013026
Eskiköy,eski,eski,Aladağ,Adana,osm_overpass,neighbourhood,37.3620352,35.1182806
Eski Konacık,eski konacık,eski konacik,Aladağ,Adana,osm_overpass,suburb,37.3894932,34.8602478
Eski Misis Mah.,eski misis,eski misis,Aladağ,Adana,osm_overpass,suburb,36.9604878,35.6265825
Eskiveliler,eskiveliler,eskiveliler,Aladağ,Adana,osm_overpass,neighbourhood,37.3429375,35.6872088
Eğriçam,eğriçam,egricam,Aladağ,Adana,osm_overpass,neighbourhood,37.3554331,35.5356348
Fatih,fatih,fatih,Aladağ,Adana,osm_overpass,suburb,37.2550762,35.6622518
Fatih Sultan Mehmet,fatih sultan mehmet,fatih sultan mehmet,Aladağ,Adana,osm_overpass,suburb,37.0399403,35.8225172
Fevzipaşa,fevzipaşa,fevzipasa,Aladağ,Adana,osm_overpass,suburb,36.9989198,35.2690314
Fındık Yaylası,fındık yaylası,findik yaylasi,Aladağ,Adana,osm_overpass,neighbourhood,37.8037655,35.7678151
Gazi Osman Paşa,gazi osman paşa,gazi osman pasa,Aladağ,Adana,osm_overpass,suburb,37.0127945,35.8133115
Gazipaşa Mah.,gazipaşa,gazipasa,Aladağ,Adana,osm_overpass,suburb,36.8473377,35.3414196
Geçili,geçili,gecili,Aladağ,Adana,osm_overpass,neighbourhood,37.532063,35.6472874
Geçitli,geçitli,gecitli,Aladağ,Adana,osm_overpass,quarter,36.95282,35.6262357
Geçitli Cumhuriyet,geçitli cumhuriyet,gecitli cumhuriyet,Aladağ,Adana,osm_overpass,suburb,36.9530412,35.6299777
Gonurlu,gonurlu,gonurlu,Aladağ,Adana,osm_overpass,neighbourhood,37.3721183,35.1403981
Göbeören,göbeören,gobeoren,Aladağ,Adana,osm_overpass,neighbourhood,36.7235614,35.5258798
Gödebekirli,gödebekirli,godebekirli,Aladağ,Adana,osm_overpass,neighbourhood,37.2840922,35.2411794
Gökçeli,gökçeli,gokceli,Aladağ,Adana,osm_overpass,suburb,37.8318445,35.8542681
Göztepe,göztepe,goztepe,Aladağ,Adana,osm_overpass,suburb,37.0123513,35.4989883
Gülbahçesi,gülbahçesi,gulbahcesi,Aladağ,Adana,osm_overpass,suburb,36.9743755,35.298643
Gülpınar,gülpınar,gulpinar,Aladağ,Adana,osm_overpass,suburb,36.9810265,35.3097152
Gültepe,gültepe,gultepe,Aladağ,Adana,osm_overpass,suburb,37.0367733,35.3949906
Gümüşdere,gümüşdere,gumusdere,Aladağ,Adana,osm_overpass,neighbourhood,37.1760364,35.6145784
Güneri,güneri,guneri,Aladağ,Adana,osm_overpass,suburb,37.4540585,35.7723413
Güneşli,güneşli,gunesli,Aladağ,Adana,osm_overpass,suburb,36.974924,35.3462791
Gürselpaşa,gürselpaşa,gurselpasa,Aladağ,Adana,osm_overpass,suburb,37.0207458,35.2722954
Güzel Cumhuriyet,güzel cumhuriyet,guzel cumhuriyet,Aladağ,Adana,osm_overpass,suburb,36.9799624,35.4149209
Güzelardıç,güzelardıç,guzelardic,Aladağ,Adana,osm_overpass,neighbourhood,37.5387968,34.9431887
Güzelevler,güzelevler,guzelevler,Aladağ,Adana,osm_overpass,suburb,36.9760134,35.3894408
Güzelyalı,güzelyalı,guzelyali,Aladağ,Adana,osm_overpass,suburb,37.0470729,35.3094964
Hacı Müminler,hacı müminler,haci muminler,Aladağ,Adana,osm_overpass,neighbourhood,36.7698974,35.5615176
Hacıhüseyinler,hacıhüseyinler,hacihuseyinler,Aladağ,Adana,osm_overpass,neighbourhood,36.7662654,35.5669304
Hacıkerimli,hacıkerimli,hacikerimli,Aladağ,Adana,osm_overpass,neighbourhood,37.4782979,35.5723572
Hacımirzalı,hacımirzalı,hacimirzali,Aladağ,Adana,osm_overpass,suburb,37.470631,35.8115713
Hacıuşağı,hacıuşağı,haciusagi,Aladağ,Adana,osm_overpass,suburb,37.4452824,35.8167593
Hanedan,hanedan,hanedan,Aladağ,Adana,osm_overpass,suburb,36.9870599,35.3201007
Hasan Çavuşlar,hasan çavuşlar,hasan cavuslar,Aladağ,Adana,osm_overpass,neighbourhood,37.7884036,35.580951
Hasanefendi,hasanefendi,hasanefendi,Aladağ,Adana,osm_overpass,neighbourhood,37.1341823,35.5467367
Havraniye Mah.,havraniye,havraniye,Aladağ,Adana,osm_overpass,suburb,36.9517723,35.6245489
Havutlu,havutlu,havutlu,Aladağ,Adana,osm_overpass,suburb,36.9260329,35.343285
Havuzlubahçe,havuzlubahçe,havuzlubahce,Aladağ,Adana,osm_overpass,suburb,36.9756783,35.318942
Haydaroğlu,haydaroğlu,haydaroglu,Aladağ,Adana,osm_overpass,suburb,36.9684406,35.3383799
Horzum Yaylası,horzum yaylası,horzum yaylasi,Aladağ,Adana,osm_overpass,neighbourhood,37.6272879,35.8492297
Hurmalı,hurmalı,hurmali,Aladağ,Adana,osm_overpass,suburb,36.9890824,35.3182125
Huzurevleri,huzurevleri,huzurevleri,Aladağ,Adana,osm_overpass,suburb,37.0381461,35.2789157
Hürriyet,hürriyet,hurriyet,Aladağ,Adana,osm_overpass,suburb,36.9914361,35.4360103
İkisu,i̇kisu,i̇kisu,Aladağ,Adana,osm_overpass,quarter,36.7692653,35.6997838
İnceler,i̇nceler,i̇nceler,Aladağ,Adana,osm_overpass,neighbourhood,37.3699611,35.2259552
İncirli,i̇ncirli,i̇ncirli,Aladağ,Adana,osm_overpass,neighbourhood,36.8933838,35.9471357
İncirlik,i̇ncirlik,i̇ncirlik,Aladağ,Adana,osm_overpass,quarter,36.9929052,35.4399739
İnönü,i̇nönü,i̇nonu,Aladağ,Adana,osm_overpass,suburb,37.0453958,35.8191283
İslam Mah.,i̇slam,i̇slam,Aladağ,Adana,osm_overpass,suburb,37.8150006,35.9115141
İslamoğlu,i̇slamoğlu,i̇slamoglu,Aladağ,Adana,osm_overpass,neighbourhood,37.087355,35.9980304
İsmetpaşa,i̇smetpaşa,i̇smetpasa,Aladağ,Adana,osm_overpass,suburb,37.007762,35.287528
İstiklal,i̇stiklal,i̇stiklal,Aladağ,Adana,osm_overpass,suburb,37.0448405,35.4570946
Kabasakal,kabasakal,kabasakal,Aladağ,Adana,osm_overpass,suburb,37.0556288,35.2268854
Kadirin Çiftliği,kadirin çiftliği,kadirin ciftligi,Aladağ,Adana,osm_overpass,neighbourhood,37.1427008,35.5330682
Kale Arkası,kale arkası,kale arkasi,Aladağ,Adana,osm_overpass,neighbourhood,37.4101156,35.8018391
Kamışoba,kamışoba,kamisoba,Aladağ,Adana,osm_overpass,neighbourhood,37.2930458,35.8355963
Karacaoğlan Mah.,karacaoğlan,karacaoglan,Aladağ,Adana,osm_overpass,suburb,37.8138123,35.9143922
Karacauşağı,karacauşağı,karacausagi,Aladağ,Adana,osm_overpass,suburb,37.8042911,35.8773565
Karadurdular,karadurdular,karadurdular,Aladağ,Adana,osm_overpass,neighbourhood,38.3493427,36.3828862
Karahamzauşağı,karahamzauşağı,karahamzausagi,Aladağ,Adana,osm_overpass,neighbourhood,37.3803713,35.0802791
Karahan,karahan,karahan,Aladağ,Adana,osm_overpass,suburb,37.0558123,35.1741438
Karalar,karalar,karalar,Aladağ,Adana,osm_overpass,neighbourhood,37.1985406,35.263094
Karamanlı,karamanlı,karamanli,Aladağ,Adana,osm_overpass,neighbourhood,37.3443173,35.8101189
Karamusalı,karamusalı,karamusali,Aladağ,Adana,osm_overpass,neighbourhood,37.5842795,35.8375744
Karaosmanlar,karaosmanlar,karaosmanlar,Aladağ,Adana,osm_overpass,neighbourhood,37.3257201,35.763423
Karapınar,karapınar,karapinar,Aladağ,Adana,osm_overpass,suburb,37.2571054,35.0601434
Karasoku,karasoku,karasoku,Aladağ,Adana,osm_overpass,suburb,36.9853117,35.3273534
Karataş,karataş,karatas,Aladağ,Adana,osm_overpass,neighbourhood,37.8443636,35.6149374
Karatepe,karatepe,karatepe,Aladağ,Adana,osm_overpass,neighbourhood,36.9085622,35.9337283
Karaçalılık,karaçalılık,karacalilik,Aladağ,Adana,osm_overpass,neighbourhood,37.8729987,36.2313115
Karcılar,karcılar,karcilar,Aladağ,Adana,osm_overpass,neighbourhood,37.1171186,35.6452945
Kargapazarı,kargapazarı,kargapazari,Aladağ,Adana,osm_overpass,neighbourhood,37.671195,36.0010373
Karmış,karmış,karmis,Aladağ,Adana,osm_overpass,neighbourhood,37.4148308,35.2365545
Karslılar,karslılar,karslilar,Aladağ,Adana,osm_overpass,suburb,37.058692,35.2935969
Karşıyaka,karşıyaka,karsiyaka,Aladağ,Adana,osm_overpass,suburb,36.973197,35.5656675
Katarası,katarası,katarasi,Aladağ,Adana,osm_overpass,neighbourhood,38.23354,36.3600031
Kavaklı,kavaklı,kavakli,Aladağ,Adana,osm_overpass,suburb,37.0004454,35.1980993
Kayalıbağ,kayalıbağ,kayalibag,Aladağ,Adana,osm_overpass,suburb,36.9896994,35.3315162
Kayauşağı,kayauşağı,kayausagi,Aladağ,Adana,osm_overpass,neighbourhood,37.5475674,35.7128459
Kazancı,kazancı,kazanci,Aladağ,Adana,osm_overpass,suburb,37.8082477,35.9377347
Kazım Karabekir,kazım karabekir,kazim karabekir,Aladağ,Adana,osm_overpass,suburb,37.0090642,35.3487681
Keklikçi,keklikçi,keklikci,Aladağ,Adana,osm_overpass,suburb,37.8367931,35.9117103
Kemaliye,kemaliye,kemaliye,Aladağ,Adana,osm_overpass,suburb,36.564615,35.3816755
Kemalpaşa,kemalpaşa,kemalpasa,Aladağ,Adana,osm_overpass,suburb,36.9941593,35.4414219
Kesiri,kesiri,kesiri,Aladağ,Adana,osm_overpass,neighbourhood,37.2306701,35.1632022
Kevizli,kevizli,kevizli,Aladağ,Adana,osm_overpass,neighbourhood,37.3895014,35.1543939
Keçebe,keçebe,kecebe,Aladağ,Adana,osm_overpass,neighbourhood,37.1225831,36.028676
Kirazlı,kirazlı,kirazli,Aladağ,Adana,osm_overpass,neighbourhood,37.0146595,35.6010754
Kiremithane,kiremithane,kiremithane,Aladağ,Adana,osm_overpass,suburb,37.0034438,35.372672
Kireç,kireç,kirec,Aladağ,Adana,osm_overpass,neighbourhood,38.148603,36.3205849
Kocaoluk Yaylası,kocaoluk yaylası,kocaoluk yaylasi,Aladağ,Adana,osm_overpass,neighbourhood,37.4198845,35.075655
Kocatepe,kocatepe,kocatepe,Aladağ,Adana,osm_overpass,suburb,37.1080899,35.1092862
Kocavezir,kocavezir,kocavezir,Aladağ,Adana,osm_overpass,suburb,36.9844889,35.3216028
Koltaklı,koltaklı,koltakli,Aladağ,Adana,osm_overpass,neighbourhood,37.4697917,35.557766
Konakoğlu,konakoğlu,konakoglu,Aladağ,Adana,osm_overpass,suburb,37.0279332,35.812806
Koruklu,koruklu,koruklu,Aladağ,Adana,osm_overpass,suburb,37.053796,35.8099034
Koza,koza,koza,Aladağ,Adana,osm_overpass,suburb,37.0023986,35.2092222
Kurtoğlu,kurtoğlu,kurtoglu,Aladağ,Adana,osm_overpass,neighbourhood,37.349196,35.801053
Kurttepe,kurttepe,kurttepe,Aladağ,Adana,osm_overpass,suburb,37.0593667,35.2722461
Kurtuluş,kurtuluş,kurtulus,Aladağ,Adana,osm_overpass,suburb,37.4256429,34.8735232
Kuruköprü,kuruköprü,kurukopru,Aladağ,Adana,osm_overpass,suburb,36.9883968,35.3232765
Kuzören,kuzören,kuzoren,Aladağ,Adana,osm_overpass,neighbourhood,37.5677842,35.7145679
Köleli,köleli,koleli,Aladağ,Adana,osm_overpass,neighbourhood,37.8230737,35.9577369
Köpekli,köpekli,kopekli,Aladağ,Adana,osm_overpass,neighbourhood,37.3844122,35.1969766
Köprülü,köprülü,koprulu,Aladağ,Adana,osm_overpass,suburb,37.0122855,35.3376102
Köşkerli,köşkerli,koskerli,Aladağ,Adana,osm_overpass,neighbourhood,37.5324523,35.2546526
Kücük Camuzağlı,kücük camuzağlı,kucuk camuzagli,Aladağ,Adana,osm_overpass,neighbourhood,37.2546532,35.8279288
Kürkçüler,kürkçüler,kurkculer,Aladağ,Adana,osm_overpass,quarter,36.9897445,35.5092892
Küçükiniş,küçükiniş,kucukinis,Aladağ,Adana,osm_overpass,neighbourhood,37.1021905,35.6188291
Küçükkırım,küçükkırım,kucukkirim,Aladağ,Adana,osm_overpass,suburb,37.0412707,35.8096609
Küçükçınar,küçükçınar,kucukcinar,Aladağ,Adana,osm_overpass,neighbourhood,37.1785295,34.9930016
Kızıldağ Yaylası,kızıldağ yaylası,kizildag yaylasi,Aladağ,Adana,osm_overpass,neighbourhood,37.4148741,35.040164
Kızılhöyük,kızılhöyük,kizilhoyuk,Aladağ,Adana,osm_overpass,neighbourhood,37.4351694,35.5560708
Kışla,kışla,kisla,Aladağ,Adana,osm_overpass,suburb,37.0218115,35.3376102
Levent,levent,levent,Aladağ,Adana,osm_overpass,suburb,36.9789695,35.3764915
mahalle,mahalle,mahalle,Aladağ,Adana,osm_overpass,neighbourhood,37.2699945,35.1629267
Mahfesığmaz,mahfesığmaz,mahfesigmaz,Aladağ,Adana,osm_overpass,suburb,37.0393845,35.3095437
Mahmudiye,mahmudiye,mahmudiye,Aladağ,Adana,osm_overpass,quarter,37.217562,35.9760383
Mahmutlu,mahmutlu,mahmutlu,Aladağ,Adana,osm_overpass,neighbourhood,37.4334911,35.8371288
Mansurlu Mah.,mansurlu,mansurlu,Aladağ,Adana,osm_overpass,suburb,37.5472253,35.3961374
Maran Yaylası,maran yaylası,maran yaylasi,Aladağ,Adana,osm_overpass,neighbourhood,37.8349713,35.8144748
Mehmet Akif Ersoy,mehmet akif ersoy,mehmet akif ersoy,Aladağ,Adana,osm_overpass,suburb,37.0160091,35.3904277
Mekan,mekan,mekan,Aladağ,Adana,osm_overpass,suburb,36.9957966,35.188822
Memi,memi,memi,Aladağ,Adana,osm_overpass,neighbourhood,37.4488712,35.8529645
Menteş,menteş,mentes,Aladağ,Adana,osm_overpass,neighbourhood,37.2552681,35.6928152
Mestanzade,mestanzade,mestanzade,Aladağ,Adana,osm_overpass,suburb,36.9789695,35.3322458
Meydan,meydan,meydan,Aladağ,Adana,osm_overpass,suburb,36.9854145,35.3029775
Meydan Yaylası,meydan yaylası,meydan yaylasi,Aladağ,Adana,osm_overpass,neighbourhood,37.529536,35.3789055
Mezit,mezit,mezit,Aladağ,Adana,osm_overpass,neighbourhood,37.3981702,35.1860332
Mirzaçelebi,mirzaçelebi,mirzacelebi,Aladağ,Adana,osm_overpass,suburb,36.9817464,35.3163242
Misis,misis,misis,Aladağ,Adana,osm_overpass,quarter,36.9626028,35.6270367
Mithat Paşa,mithat paşa,mithat pasa,Aladağ,Adana,osm_overpass,suburb,37.0215837,35.8257141
Mithatpaşa,mithatpaşa,mithatpasa,Aladağ,Adana,osm_overpass,suburb,37.0088586,35.301218
Modernevler,modernevler,modernevler,Aladağ,Adana,osm_overpass,suburb,37.016838,35.8047714
Mollaömerli,mollaömerli,mollaomerli,Aladağ,Adana,osm_overpass,neighbourhood,37.3953318,35.2609527
Muradiye,muradiye,muradiye,Aladağ,Adana,osm_overpass,suburb,37.0218236,35.8098354
Mutlu,mutlu,mutlu,Aladağ,Adana,osm_overpass,suburb,37.0051003,35.3853648
Müminli,müminli,muminli,Aladağ,Adana,osm_overpass,suburb,36.9967222,35.512508
Mıdık,mıdık,midik,Aladağ,Adana,osm_overpass,suburb,36.9502348,35.314865
Namık Kemal,namık kemal,namik kemal,Aladağ,Adana,osm_overpass,suburb,37.0120406,35.8196416
Narlıca,narlıca,narlica,Aladağ,Adana,osm_overpass,suburb,36.9995367,35.2949094
Niğdeliler,niğdeliler,nigdeliler,Aladağ,Adana,osm_overpass,neighbourhood,37.1186477,35.5796592
Okurlar,okurlar,okurlar,Aladağ,Adana,osm_overpass,neighbourhood,37.0291293,35.5556087
Onur,onur,onur,Aladağ,Adana,osm_overpass,suburb,36.9915162,35.2670573
Orhangazi,orhangazi,orhangazi,Aladağ,Adana,osm_overpass,suburb,37.0362248,35.4242708
Orta,orta,orta,Aladağ,Adana,osm_overpass,neighbourhood,37.3558469,35.7458184
Orta Eğriçam,orta eğriçam,orta egricam,Aladağ,Adana,osm_overpass,neighbourhood,37.3675209,35.519777
Ortahüyük,ortahüyük,ortahuyuk,Aladağ,Adana,osm_overpass,neighbourhood,37.2906017,35.607845
Ortaoluk,ortaoluk,ortaoluk,Aladağ,Adana,osm_overpass,neighbourhood,38.1559409,36.3242993
Osmangazi,osmangazi,osmangazi,Aladağ,Adana,osm_overpass,suburb,37.0723571,35.4075704
Ova,ova,ova,Aladağ,Adana,osm_overpass,suburb,36.9834262,35.2673148
P.T.T,p.t.t,p.t.t,Aladağ,Adana,osm_overpass,suburb,37.0216744,35.3672217
Pınar,pınar,pinar,Aladağ,Adana,osm_overpass,suburb,37.0222226,35.2861976
Remzi Oğuz Arık,remzi oğuz arık,remzi oguz arik,Aladağ,Adana,osm_overpass,suburb,37.0176763,35.3859562
Reşatbey,reşatbey,resatbey,Aladağ,Adana,osm_overpass,suburb,36.9951837,35.332117
Sakarya,sakarya,sakarya,Aladağ,Adana,osm_overpass,suburb,36.9949439,35.3004455
Saklı,saklı,sakli,Aladağ,Adana,osm_overpass,neighbourhood,37.2225452,35.1411394
Saklıcennet,saklıcennet,saklicennet,Aladağ,Adana,osm_overpass,neighbourhood,37.6116478,34.9758446
Sakıztepe,sakıztepe,sakiztepe,Aladağ,Adana,osm_overpass,neighbourhood,37.4033949,35.6307112
Salbaş,salbaş,salbas,Aladağ,Adana,osm_overpass,quarter,37.1102933,35.112182
Salbaş Esentepe,salbaş esentepe,salbas esentepe,Aladağ,Adana,osm_overpass,suburb,37.1190723,35.1239973
Sarıağaç,sarıağaç,sariagac,Aladağ,Adana,osm_overpass,neighbourhood,37.4579547,35.5200863
Sarıhamzalı,sarıhamzalı,sarihamzali,Aladağ,Adana,osm_overpass,suburb,36.9782976,35.2246829
Sarısakal,sarısakal,sarisakal,Aladağ,Adana,osm_overpass,suburb,37.0125204,35.8054366
Sarıyakup,sarıyakup,sariyakup,Aladağ,Adana,osm_overpass,suburb,36.9820892,35.329113
Sarıyakuplu,sarıyakuplu,sariyakuplu,Aladağ,Adana,osm_overpass,neighbourhood,37.9865742,36.0409498
Sarız,sarız,sariz,Aladağ,Adana,osm_overpass,neighbourhood,37.8112758,35.7052714
Sarıçam,sarıçam,saricam,Aladağ,Adana,osm_overpass,suburb,36.9925102,35.3540468
Selahattin Eyyubi,selahattin eyyubi,selahattin eyyubi,Aladağ,Adana,osm_overpass,suburb,37.0088586,35.3705691
Selampınar,selampınar,selampinar,Aladağ,Adana,osm_overpass,suburb,37.2569048,35.0571333
Serinevler,serinevler,serinevler,Aladağ,Adana,osm_overpass,suburb,36.8715789,35.244956
Seyhan,seyhan,seyhan,Aladağ,Adana,osm_overpass,suburb,36.9658379,35.3328895
Sinanpaşa Mah.,sinanpaşa,sinanpasa,Aladağ,Adana,osm_overpass,suburb,37.5465243,35.394306
Sivişli,sivişli,sivisli,Aladağ,Adana,osm_overpass,neighbourhood,37.4884633,35.1577865
Sofudede,sofudede,sofudede,Aladağ,Adana,osm_overpass,neighbourhood,37.4214724,35.2744183
Solakkadirli,solakkadirli,solakkadirli,Aladağ,Adana,osm_overpass,neighbourhood,37.2866181,35.2729902
Solaklı,solaklı,solakli,Aladağ,Adana,osm_overpass,quarter,36.8065107,35.336982
Solaklı Cumhuriyet Mah.,solaklı cumhuriyet,solakli cumhuriyet,Aladağ,Adana,osm_overpass,suburb,36.8068983,35.3340099
Solaklı Hürriyet Mah.,solaklı hürriyet,solakli hurriyet,Aladağ,Adana,osm_overpass,suburb,36.8041136,35.3381261
Soğukoluk,soğukoluk,sogukoluk,Aladağ,Adana,osm_overpass,neighbourhood,37.6037773,35.2465975
Sucuzade,sucuzade,sucuzade,Aladağ,Adana,osm_overpass,suburb,36.9801694,35.3210449
Suluca,suluca,suluca,Aladağ,Adana,osm_overpass,quarter,36.9749005,35.5697393
Söğütlü,söğütlü,sogutlu,Aladağ,Adana,osm_overpass,suburb,37.0014904,35.2057876
Sülemişli,sülemişli,sulemisli,Aladağ,Adana,osm_overpass,suburb,37.8491756,35.9391385
Sülmen,sülmen,sulmen,Aladağ,Adana,osm_overpass,neighbourhood,37.8917637,36.2214625
Sümer,sümer,sumer,Aladağ,Adana,osm_overpass,suburb,37.0134506,35.3183841
Sürmeliler,sürmeliler,surmeliler,Aladağ,Adana,osm_overpass,neighbourhood,37.3638302,35.1437026
Tabanlı,tabanlı,tabanli,Aladağ,Adana,osm_overpass,neighbourhood,37.4206583,35.2140453
Tahsilli,tahsilli,tahsilli,Aladağ,Adana,osm_overpass,suburb,37.0002907,35.3587245
Tanrıverdi,tanrıverdi,tanriverdi,Aladağ,Adana,osm_overpass,neighbourhood,36.8032888,35.3101659
Tapantepe,tapantepe,tapantepe,Aladağ,Adana,osm_overpass,neighbourhood,37.0790919,35.1761734
Tarsuslu,tarsuslu,tarsuslu,Aladağ,Adana,osm_overpass,neighbourhood,37.2996096,35.6660145
Tavşantepe,tavşantepe,tavsantepe,Aladağ,Adana,osm_overpass,suburb,37.4427539,35.8265
Taş,taş,tas,Aladağ,Adana,osm_overpass,suburb,37.444743,35.8148278
Tekdam,tekdam,tekdam,Aladağ,Adana,osm_overpass,neighbourhood,37.3154993,35.4949593
Tellidere,tellidere,tellidere,Aladağ,Adana,osm_overpass,suburb,37.0223597,35.2968406
Tepebağ,tepebağ,tepebag,Aladağ,Adana,osm_overpass,suburb,36.9880197,35.3274822
Toklular,toklular,toklular,Aladağ,Adana,osm_overpass,neighbourhood,37.3638875,35.8070132
Topallar,topallar,topallar,Aladağ,Adana,osm_overpass,neighbourhood,37.3295495,35.7580591
Topçular,topçular,topcular,Aladağ,Adana,osm_overpass,neighbourhood,37.4085509,35.5445479
Toros,toros,toros,Aladağ,Adana,osm_overpass,suburb,37.0395088,35.2991442
Torunlar,torunlar,torunlar,Aladağ,Adana,osm_overpass,neighbourhood,37.3112498,35.7984728
Tufanli,tufanli,tufanli,Aladağ,Adana,osm_overpass,neighbourhood,37.7856663,36.003379
Tufanpaşa,tufanpaşa,tufanpasa,Aladağ,Adana,osm_overpass,suburb,37.4514081,35.8157539
Tuna,tuna,tuna,Aladağ,Adana,osm_overpass,suburb,37.2580103,35.6638203
Tömek,tömek,tomek,Aladağ,Adana,osm_overpass,neighbourhood,37.0497669,35.1232605
Türkeli,türkeli,turkeli,Aladağ,Adana,osm_overpass,suburb,37.4637157,35.8281323
Türkocağı,türkocağı,turkocagi,Aladağ,Adana,osm_overpass,suburb,36.9819864,35.3333187
Tılan,tılan,tilan,Aladağ,Adana,osm_overpass,neighbourhood,37.2952001,35.8081241
Ulubatlı Hasan,ulubatlı hasan,ulubatli hasan,Aladağ,Adana,osm_overpass,suburb,37.0050483,35.3807976
Ulucamii,ulucamii,ulucamii,Aladağ,Adana,osm_overpass,suburb,36.9852431,35.3318166
Ulus,ulus,ulus,Aladağ,Adana,osm_overpass,suburb,37.0271966,35.8236421
Ustahasanlar,ustahasanlar,ustahasanlar,Aladağ,Adana,osm_overpass,neighbourhood,37.1138227,35.5291843
Uçak,uçak,ucak,Aladağ,Adana,osm_overpass,suburb,36.9854831,35.2785586
Varsaklar,varsaklar,varsaklar,Aladağ,Adana,osm_overpass,suburb,37.4474899,35.7925326
Venk,venk,venk,Aladağ,Adana,osm_overpass,neighbourhood,37.9629613,36.0237193
Yakapınar,yakapınar,yakapinar,Aladağ,Adana,osm_overpass,suburb,36.9586275,35.6084713
Yamaçlı,yamaçlı,yamacli,Aladağ,Adana,osm_overpass,suburb,36.9771182,35.3428458
Yarsuat,yarsuat,yarsuat,Aladağ,Adana,osm_overpass,suburb,37.0440708,35.8095231
Yarımoğlu,yarımoğlu,yarimoglu,Aladağ,Adana,osm_overpass,suburb,37.4429421,35.8149488
Yavuz Sultan Selim,yavuz sultan selim,yavuz sultan selim,Aladağ,Adana,osm_overpass,suburb,37.0408505,35.4208235
Yavuzlar,yavuzlar,yavuzlar,Aladağ,Adana,osm_overpass,suburb,37.0015931,35.3454208
yayla,yayla,yayla,Aladağ,Adana,osm_overpass,neighbourhood,37.4939581,35.3675062
Yağlıören,yağlıören,yaglioren,Aladağ,Adana,osm_overpass,neighbourhood,37.404214,35.5763282
Yedigöz,yedigöz,yedigoz,Aladağ,Adana,osm_overpass,neighbourhood,37.9229693,35.6161996
Yeni,yeni,yeni,Aladağ,Adana,osm_overpass,suburb,36.9862068,35.4371303
Yeni Konacık,yeni konacık,yeni konacik,Aladağ,Adana,osm_overpass,suburb,37.4225653,34.8452639
Yeni Mahalle,yeni mahalle,yeni mahalle,Aladağ,Adana,osm_overpass,suburb,37.1089745,35.113883
Yenibaraj,yenibaraj,yenibaraj,Aladağ,Adana,osm_overpass,suburb,37.0223561,35.3194396
Yenibey,yenibey,yenibey,Aladağ,Adana,osm_overpass,suburb,36.970844,35.3263235
Yenicami,yenicami,yenicami,Aladağ,Adana,osm_overpass,suburb,38.2638869,36.2219155
Yenidoğan,yenidoğan,yenidogan,Aladağ,Adana,osm_overpass,suburb,36.9880883,35.3846454
Yenievler,yenievler,yenievler,Aladağ,Adana,osm_overpass,neighbourhood,37.2254668,35.6511712
Yenimahalle,yenimahalle,yenimahalle,Aladağ,Adana,osm_overpass,suburb,37.0176312,35.2439688
Yeşil Bağlar,yeşil bağlar,yesil baglar,Aladağ,Adana,osm_overpass,suburb,36.9711526,35.3626727
Yeşil Düşmüş Mah.,yeşil düşmüş,yesil dusmus,Aladağ,Adana,osm_overpass,suburb,37.8140898,35.9092212
Yeşilbağlar Mah.,yeşilbağlar,yesilbaglar,Aladağ,Adana,osm_overpass,suburb,37.9859464,36.0886575
Yeşilevler,yeşilevler,yesilevler,Aladağ,Adana,osm_overpass,suburb,37.0035123,35.2841806
Yeşiloba,yeşiloba,yesiloba,Aladağ,Adana,osm_overpass,suburb,36.9990569,35.2370166
Yeşilova,yeşilova,yesilova,Aladağ,Adana,osm_overpass,quarter,37.2265013,35.7501125
Yeşiltepe,yeşiltepe,yesiltepe,Aladağ,Adana,osm_overpass,suburb,37.0335374,35.4061812
Yeşilyurt,yeşilyurt,yesilyurt,Aladağ,Adana,osm_overpass,suburb,37.0191389,35.3086852
Yeşilyuva,yeşilyuva,yesilyuva,Aladağ,Adana,osm_overpass,suburb,36.9852431,35.3143072
Yukarı Kayhan,yukarı kayhan,yukari kayhan,Aladağ,Adana,osm_overpass,neighbourhood,37.3898529,35.8286532
Yunus Emre,yunus emre,yunus emre,Aladağ,Adana,osm_overpass,suburb,36.9780439,35.356965
Yunusoğlu,yunusoğlu,yunusoglu,Aladağ,Adana,osm_overpass,quarter,36.8156967,35.2781064
Yunusoğlu Cumhuriyet Mah.,yunusoğlu cumhuriyet,yunusoglu cumhuriyet,Aladağ,Adana,osm_overpass,suburb,36.8147327,35.2770318
Yunusoğlu Hürriyet,yunusoğlu hürriyet,yunusoglu hurriyet,Aladağ,Adana,osm_overpass,suburb,36.8169784,35.278414
Yurt,yurt,yurt,Aladağ,Adana,osm_overpass,suburb,37.0421391,35.2876665
Yörükler,yörükler,yorukler,Aladağ,Adana,osm_overpass,neighbourhood,37.1588031,35.6046295
Yürekli,yürekli,yurekli,Aladağ,Adana,osm_overpass,suburb,36.9884213,35.5103596
Yüzüncüyıl,yüzüncüyıl,yuzuncuyil,Aladağ,Adana,osm_overpass,suburb,37.0440515,35.2458702
Yıldırım Beyazıt,yıldırım beyazıt,yildirim beyazit,Aladağ,Adana,osm_overpass,suburb,37.0261944,35.4005904
Zafer,zafer,zafer,Aladağ,Adana,osm_overpass,suburb,37.4277436,34.8720722
Zeynepli,zeynepli,zeynepli,Aladağ,Adana,osm_overpass,neighbourhood,36.7365055,35.5782172
Zeynepoğlu,zeynepoğlu,zeynepoglu,Aladağ,Adana,osm_overpass,neighbourhood,37.4314917,35.3033448
Ziyapaşa,ziyapaşa,ziyapasa,Aladağ,Adana,osm_overpass,suburb,37.0098524,35.3291988
Ziyelli,ziyelli,ziyelli,Aladağ,Adana,osm_overpass,neighbourhood,37.7931007,35.8027267
Zübeyde Hanım,zübeyde hanım,zubeyde hanim,Aladağ,Adana,osm_overpass,suburb,37.0317532,35.8137287
Çamdere,çamdere,camdere,Aladağ,Adana,osm_overpass,neighbourhood,37.6267656,35.8488632
Çamlıbel,çamlıbel,camlibel,Aladağ,Adana,osm_overpass,suburb,36.9982343,35.3849887
Çanaklı,çanaklı,canakli,Aladağ,Adana,osm_overpass,suburb,37.4541032,35.7939878
Çarkıpare,çarkıpare,carkipare,Aladağ,Adana,osm_overpass,suburb,37.0681131,35.3853975
Çataoluk Yaylası,çataoluk yaylası,cataoluk yaylasi,Aladağ,Adana,osm_overpass,neighbourhood,37.7942502,35.7798583
Çavuşa,çavuşa,cavusa,Aladağ,Adana,osm_overpass,neighbourhood,37.3303362,35.7663131
Çeceli,çeceli,ceceli,Aladağ,Adana,osm_overpass,suburb,37.2518458,35.0618999
Çevlik,çevlik,cevlik,Aladağ,Adana,osm_overpass,neighbourhood,37.3920246,35.0375676
Çiftlik,çiftlik,ciftlik,Aladağ,Adana,osm_overpass,neighbourhood,38.1218589,36.1110075
Çolak Hasan,çolak hasan,colak hasan,Aladağ,Adana,osm_overpass,neighbourhood,37.3674518,35.8035371
Çorcular,çorcular,corcular,Aladağ,Adana,osm_overpass,neighbourhood,37.7719625,36.0016367
Çukurkamış,çukurkamış,cukurkamis,Aladağ,Adana,osm_overpass,neighbourhood,37.1362008,35.7558256
Çungurlu,çungurlu,cungurlu,Aladağ,Adana,osm_overpass,neighbourhood,37.1228254,35.2092223
Çöbük,çöbük,cobuk,Aladağ,Adana,osm_overpass,neighbourhood,37.384685,35.5810261
Çömekli,çömekli,comekli,Aladağ,Adana,osm_overpass,neighbourhood,37.478928,35.195213
Çömrük,çömrük,comruk,Aladağ,Adana,osm_overpass,neighbourhood,37.6085599,35.5967615
Çınarlı,çınarlı,cinarli,Aladağ,Adana,osm_overpass,suburb,37.0717705,35.3935739
Ören,ören,oren,Aladağ,Adana,osm_overpass,suburb,36.7687207,35.787719
Özgür,özgür,ozgur,Aladağ,Adana,osm_overpass,suburb,36.9888082,35.3571367
Özler,özler,ozler,Aladağ,Adana,osm_overpass,suburb,36.9105375,35.5662027
Üçdut,üçdut,ucdut,Aladağ,Adana,osm_overpass,quarter,37.2495955,35.7475055
Üçhüyük,üçhüyük,uchuyuk,Aladağ,Adana,osm_overpass,neighbourhood,37.2726266,35.7808944
Şahin Özbilen,şahin özbilen,sahin ozbilen,Aladağ,Adana,osm_overpass,suburb,37.0349878,35.8294746
Şahintepe,şahintepe,sahintepe,Aladağ,Adana,osm_overpass,suburb,37.0311588,35.4144768
Şahintepesi,şahintepesi,sahintepesi,Aladağ,Adana,osm_overpass,neighbourhood,37.6370576,34.9839234
Şakirpaşa,şakirpaşa,sakirpasa,Aladağ,Adana,osm_overpass,suburb,36.9915847,35.2821635
Şambayadı,şambayadı,sambayadi,Aladağ,Adana,osm_overpass,suburb,37.0425121,35.1982698
Şarıklı,şarıklı,sarikli,Aladağ,Adana,osm_overpass,neighbourhood,37.2071057,35.3621892
Şehit Erkut Akbay,şehit erkut akbay,sehit erkut akbay,Aladağ,Adana,osm_overpass,suburb,36.998577,35.3750323
Şehit Hacı İbrahim,şehit hacı i̇brahim,sehit haci i̇brahim,Aladağ,Adana,osm_overpass,suburb,37.035967,35.8156559
Şehitduran,şehitduran,sehitduran,Aladağ,Adana,osm_overpass,suburb,36.9750611,35.3317308
Şevkiye,şevkiye,sevkiye,Aladağ,Adana,osm_overpass,suburb,37.4491619,35.8055469
Şeyhganim,şeyhganim,seyhganim,Aladağ,Adana,osm_overpass,neighbourhood,36.7392796,35.5116856
19 Mayıs,19 mayıs,19 mayis,Ceyhan,Adana,osm_overpass,suburb,36.9774268,35.3637886
2000 Evler,2000 evler,2000 evler,Ceyhan,Adana,osm_overpass,suburb,37.0289578,35.2656922
Abacılar,abacılar,abacilar,Ceyhan,Adana,osm_overpass,neighbourhood,37.0972102,35.1571727
Abdilli,abdilli,abdilli,Ceyhan,Adana,osm_overpass,neighbourhood,37.3332623,35.231148
Abdiluşağı,abdiluşağı,abdilusagi,Ceyhan,Adana,osm_overpass,neighbourhood,37.3138865,35.598557
Abdioğlu,abdioğlu,abdioglu,Ceyhan,Adana,osm_overpass,quarter,36.9096872,35.5657486
Abdioğlu Cumhuriyet Mah.,abdioğlu cumhuriyet,abdioglu cumhuriyet,Ceyhan,Adana,osm_overpass,suburb,36.9086652,35.5647977
Acıdere,acıdere,acidere,Ceyhan,Adana,osm_overpass,suburb,36.9773106,35.5734772
Acıdere OSB,acıdere osb,acidere osb,Ceyhan,Adana,osm_overpass,suburb,36.9695411,35.5961751
Adalet,adalet,adalet,Ceyhan,Adana,osm_overpass,suburb,37.2615096,35.6629092
Ahmet Remzi Yüreğir,ahmet remzi yüreğir,ahmet remzi yuregir,Ceyhan,Adana,osm_overpass,suburb,36.9971717,35.30375
Akdeniz,akdeniz,akdeniz,Ceyhan,Adana,osm_overpass,suburb,36.7761733,35.7967353
Akkapı,akkapı,akkapi,Ceyhan,Adana,osm_overpass,suburb,36.9645693,35.3077411
Akkoca,akkoca,akkoca,Ceyhan,Adana,osm_overpass,neighbourhood,37.6061699,35.6210285
Akmaşat,akmaşat,akmasat,Ceyhan,Adana,osm_overpass,neighbourhood,37.1786325,35.7308201
Akpınar,akpınar,akpinar,Ceyhan,Adana,osm_overpass,suburb,37.5242457,35.402761
Aktaşalanı,aktaşalanı,aktasalani,Ceyhan,Adana,osm_overpass,neighbourhood,38.3542087,36.2728774
Akyuva,akyuva,akyuva,Ceyhan,Adana,osm_overpass,suburb,36.780647,35.8076391
Akıncılar,akıncılar,akincilar,Ceyhan,Adana,osm_overpass,suburb,36.9977544,35.3522872
Aliağalar,aliağalar,aliagalar,Ceyhan,Adana,osm_overpass,neighbourhood,37.3240715,35.7909898
Alidede,alidede,alidede,Ceyhan,Adana,osm_overpass,suburb,36.9818835,35.3261947
Alifakılı,alifakılı,alifakili,Ceyhan,Adana,osm_overpass,neighbourhood,37.5477928,35.6935501
Altıocak,altıocak,altiocak,Ceyhan,Adana,osm_overpass,suburb,37.0479264,35.8166872
Anadolu,anadolu,anadolu,Ceyhan,Adana,osm_overpass,suburb,36.9795181,35.352888
Arapismaildamı Yaylası,arapismaildamı yaylası,arapismaildami yaylasi,Ceyhan,Adana,osm_overpass,neighbourhood,38.03705,35.96136
Arslanpaşa,arslanpaşa,arslanpasa,Ceyhan,Adana,osm_overpass,suburb,37.4459481,35.8195545
Atakent,atakent,atakent,Ceyhan,Adana,osm_overpass,suburb,36.9915847,35.3715133
Atatürk,atatürk,ataturk,Ceyhan,Adana,osm_overpass,suburb,37.0254387,35.8097743
Avluk,avluk,avluk,Ceyhan,Adana,osm_overpass,neighbourhood,37.7000699,35.75037
Ayas,ayas,ayas,Ceyhan,Adana,osm_overpass,suburb,36.7688293,35.7903853
Aydemiroğlu,aydemiroğlu,aydemiroglu,Ceyhan,Adana,osm_overpass,suburb,37.0330628,35.8153308
Aydınlar,aydınlar,aydinlar,Ceyhan,Adana,osm_overpass,neighbourhood,36.7369233,34.9904284
Aydınlı,aydınlı,aydinli,Ceyhan,Adana,osm_overpass,neighbourhood,37.3249487,35.211364
Aynalıçeşme,aynalıçeşme,aynalicesme,Ceyhan,Adana,osm_overpass,neighbourhood,37.8657319,36.0378814
Ağcakise Yaylası,ağcakise yaylası,agcakise yaylasi,Ceyhan,Adana,osm_overpass,neighbourhood,37.5370084,35.4255362
Ağlıboğaz,ağlıboğaz,aglibogaz,Ceyhan,Adana,osm_overpass,suburb,37.473585,35.8348997
Ağpınar,ağpınar,agpinar,Ceyhan,Adana,osm_overpass,neighbourhood,38.3664107,36.2438992
Aşağı Kayhan,aşağı kayhan,asagi kayhan,Ceyhan,Adana,osm_overpass,neighbourhood,37.3763861,35.8267201
Aşağıyörükler,aşağıyörükler,asagiyorukler,Ceyhan,Adana,osm_overpass,suburb,37.2789871,35.0648146
Bahçelievler,bahçelievler,bahcelievler,Ceyhan,Adana,osm_overpass,suburb,36.9660094,35.3583812
Bahçeşehir,bahçeşehir,bahcesehir,Ceyhan,Adana,osm_overpass,suburb,37.0289723,35.243785
Balcalı,balcalı,balcali,Ceyhan,Adana,osm_overpass,suburb,37.0544136,35.3648913
Barbaros,barbaros,barbaros,Ceyhan,Adana,osm_overpass,suburb,36.9677924,35.3225898
Barış,barış,baris,Ceyhan,Adana,osm_overpass,suburb,37.0039236,35.2758979
Bağlar,bağlar,baglar,Ceyhan,Adana,osm_overpass,suburb,37.4549117,35.8399848
Başak,başak,basak,Ceyhan,Adana,osm_overpass,suburb,36.9833919,35.3637886
Başpınar,başpınar,baspinar,Ceyhan,Adana,osm_overpass,suburb,37.521345,35.391477
Bekdeş,bekdeş,bekdes,Ceyhan,Adana,osm_overpass,neighbourhood,37.6871784,35.6927615
Bekirli,bekirli,bekirli,Ceyhan,Adana,osm_overpass,neighbourhood,37.1348323,36.0216379
Belbaşı,belbaşı,belbasi,Ceyhan,Adana,osm_overpass,neighbourhood,38.20773,36.3474475
Belediye Evleri,belediye evleri,belediye evleri,Ceyhan,Adana,osm_overpass,suburb,37.048301,35.8058431
Bey,bey,bey,Ceyhan,Adana,osm_overpass,suburb,36.9659408,35.3171396
Beyazevler,beyazevler,beyazevler,Ceyhan,Adana,osm_overpass,suburb,37.0308167,35.3178467
Beyceli,beyceli,beyceli,Ceyhan,Adana,osm_overpass,suburb,37.0497995,35.4241271
Beşocak,beşocak,besocak,Ceyhan,Adana,osm_overpass,suburb,36.9796552,35.3267097
Birkent Celiluşağı,birkent celiluşağı,birkent celilusagi,Ceyhan,Adana,osm_overpass,quarter,37.2143317,35.9922677
Birkent Eskikent,birkent eskikent,birkent eskikent,Ceyhan,Adana,osm_overpass,quarter,37.2082944,36.0255271
Birkent Yenikent,birkent yenikent,birkent yenikent,Ceyhan,Adana,osm_overpass,quarter,37.2067221,36.0427577
Bota,bota,bota,Ceyhan,Adana,osm_overpass,suburb,37.0383318,35.8103022
Boynuyoğun,boynuyoğun,boynuyogun,Ceyhan,Adana,osm_overpass,suburb,37.0591562,35.4212106
Burhaniye,burhaniye,burhaniye,Ceyhan,Adana,osm_overpass,suburb,37.0223033,35.8179679
Buruk,buruk,buruk,Ceyhan,Adana,osm_overpass,quarter,37.0394649,35.4545561
Buruk Cumhuriyet,buruk cumhuriyet,buruk cumhuriyet,Ceyhan,Adana,osm_overpass,suburb,37.0381814,35.451125
Bürücek,bürücek,burucek,Ceyhan,Adana,osm_overpass,quarter,37.3482623,34.8251507
Büyükkırım,büyükkırım,buyukkirim,Ceyhan,Adana,osm_overpass,suburb,37.0233561,35.8120659
Cananlı,cananlı,cananli,Ceyhan,Adana,osm_overpass,neighbourhood,37.3315732,35.258925
Cemalpaşa,cemalpaşa,cemalpasa,Ceyhan,Adana,osm_overpass,suburb,37.0031011,35.3295421
Cevherli,cevherli,cevherli,Ceyhan,Adana,osm_overpass,neighbourhood,37.2616127,35.2591503
Ceyhan,ceyhan,ceyhan,Ceyhan,Adana,manual,neighbourhood,,
Cingöz,cingöz,cingoz,Ceyhan,Adana,osm_overpass,neighbourhood,37.3687498,35.2619
Civantayak,civantayak,civantayak,Ceyhan,Adana,osm_overpass,suburb,37.0346512,35.8119415
Cumhuriyet,cumhuriyet,cumhuriyet,Ceyhan,Adana,osm_overpass,suburb,37.0156558,35.8279457
Cırnazlı,cırnazlı,cirnazli,Ceyhan,Adana,osm_overpass,neighbourhood,37.5085684,35.5785853
Dadaloğlu,dadaloğlu,dadaloglu,Ceyhan,Adana,osm_overpass,suburb,37.0030668,35.3632307
Damderesi,damderesi,damderesi,Ceyhan,Adana,osm_overpass,neighbourhood,37.9076036,35.942502
Dağcı,dağcı,dagci,Ceyhan,Adana,osm_overpass,suburb,36.9836301,35.5175035
Dağlıcak,dağlıcak,daglicak,Ceyhan,Adana,osm_overpass,neighbourhood,37.5471548,35.832231
Dağlıoğlu,dağlıoğlu,daglioglu,Ceyhan,Adana,osm_overpass,suburb,36.9735526,35.3109169
Dede Korkut,dede korkut,dede korkut,Ceyhan,Adana,osm_overpass,suburb,36.9849688,35.3499269
Demetevler,demetevler,demetevler,Ceyhan,Adana,osm_overpass,suburb,36.9982,35.2847385
Denizler,denizler,denizler,Ceyhan,Adana,osm_overpass,neighbourhood,37.3153887,35.7855799
Denizli,denizli,denizli,Ceyhan,Adana,osm_overpass,suburb,37.0034095,35.2989864
Dereköy,dere,dere,Ceyhan,Adana,osm_overpass,neighbourhood,37.2752096,35.131398
Dervişler,dervişler,dervisler,Ceyhan,Adana,osm_overpass,suburb,36.9977544,35.3628444
Devrişiye,devrişiye,devrisiye,Ceyhan,Adana,osm_overpass,suburb,36.7727766,35.7928864
Doğankent,doğankent,dogankent,Ceyhan,Adana,osm_overpass,quarter,36.8448092,35.3392419
Doğankent Bahçelievler Mah.,doğankent bahçelievler,dogankent bahcelievler,Ceyhan,Adana,osm_overpass,suburb,36.8434321,35.3336562
Doğankent Cumhuriyet,doğankent cumhuriyet,dogankent cumhuriyet,Ceyhan,Adana,osm_overpass,suburb,36.8438173,35.3413716
Doğankent Kışla Mah.,doğankent kışla,dogankent kisla,Ceyhan,Adana,osm_overpass,suburb,36.8500039,35.3391147
Dumlupınar,dumlupınar,dumlupinar,Ceyhan,Adana,osm_overpass,suburb,36.9804437,35.3023767
Döşeme,döşeme,doseme,Ceyhan,Adana,osm_overpass,suburb,36.9950124,35.3137064
Elifçeler,elifçeler,elifceler,Ceyhan,Adana,osm_overpass,neighbourhood,37.4126414,35.5251503
Emek,emek,emek,Ceyhan,Adana,osm_overpass,suburb,37.0405565,35.8318717
Emirgazi,emirgazi,emirgazi,Ceyhan,Adana,osm_overpass,neighbourhood,38.1616405,36.0203482
Emirler,emirler,emirler,Ceyhan,Adana,osm_overpass,neighbourhood,37.9840078,35.990138
Eseler,eseler,eseler,Ceyhan,Adana,osm_overpass,neighbourhood,37.5425527,35.6358826
Esentepe,esentepe,esentepe,Ceyhan,Adana,osm_overpass,suburb,37.0373273,35.4145471
Esirmek,esirmek,esirmek,Ceyhan,Adana,osm_overpass,neighbourhood,37.7320176,36.013026
Eskiköy,eski,eski,Ceyhan,Adana,osm_overpass,neighbourhood,37.3620352,35.1182806
Eski Konacık,eski konacık,eski konacik,Ceyhan,Adana,osm_overpass,suburb,37.3894932,34.8602478
Eski Misis Mah.,eski misis,eski misis,Ceyhan,Adana,osm_overpass,suburb,36.9604878,35.6265825
Eskiveliler,eskiveliler,eskiveliler,Ceyhan,Adana,osm_overpass,neighbourhood,37.3429375,35.6872088
Eğriçam,eğriçam,egricam,Ceyhan,Adana,osm_overpass,neighbourhood,37.3554331,35.5356348
Fatih,fatih,fatih,Ceyhan,Adana,osm_overpass,suburb,37.2550762,35.6622518
Fatih Sultan Mehmet,fatih sultan mehmet,fatih sultan mehmet,Ceyhan,Adana,osm_overpass,suburb,37.0399403,35.8225172
Fevzipaşa,fevzipaşa,fevzipasa,Ceyhan,Adana,osm_overpass,suburb,36.9989198,35.2690314
Fındık Yaylası,fındık yaylası,findik yaylasi,Ceyhan,Adana,osm_overpass,neighbourhood,37.8037655,35.7678151
Gazi Osman Paşa,gazi osman paşa,gazi osman pasa,Ceyhan,Adana,osm_overpass,suburb,37.0127945,35.8133115
Gazipaşa Mah.,gazipaşa,gazipasa,Ceyhan,Adana,osm_overpass,suburb,36.8473377,35.3414196
Geçili,geçili,gecili,Ceyhan,Adana,osm_overpass,neighbourhood,37.532063,35.6472874
Geçitli,geçitli,gecitli,Ceyhan,Adana,osm_overpass,quarter,36.95282,35.6262357
Geçitli Cumhuriyet,geçitli cumhuriyet,gecitli cumhuriyet,Ceyhan,Adana,osm_overpass,suburb,36.9530412,35.6299777
Gonurlu,gonurlu,gonurlu,Ceyhan,Adana,osm_overpass,neighbourhood,37.3721183,35.1403981
Göbeören,göbeören,gobeoren,Ceyhan,Adana,osm_overpass,neighbourhood,36.7235614,35.5258798
Gödebekirli,gödebekirli,godebekirli,Ceyhan,Adana,osm_overpass,neighbourhood,37.2840922,35.2411794
Gökçeli,gökçeli,gokceli,Ceyhan,Adana,osm_overpass,suburb,37.8318445,35.8542681
Göztepe,göztepe,goztepe,Ceyhan,Adana,osm_overpass,suburb,37.0123513,35.4989883
Gülbahçesi,gülbahçesi,gulbahcesi,Ceyhan,Adana,osm_overpass,suburb,36.9743755,35.298643
Gülpınar,gülpınar,gulpinar,Ceyhan,Adana,osm_overpass,suburb,36.9810265,35.3097152
Gültepe,gültepe,gultepe,Ceyhan,Adana,osm_overpass,suburb,37.0367733,35.3949906
Gümüşdere,gümüşdere,gumusdere,Ceyhan,Adana,osm_overpass,neighbourhood,37.1760364,35.6145784
Güneri,güneri,guneri,Ceyhan,Adana,osm_overpass,suburb,37.4540585,35.7723413
Güneşli,güneşli,gunesli,Ceyhan,Adana,osm_overpass,suburb,36.974924,35.3462791
Gürselpaşa,gürselpaşa,gurselpasa,Ceyhan,Adana,osm_overpass,suburb,37.0207458,35.2722954
Güzel Cumhuriyet,güzel cumhuriyet,guzel cumhuriyet,Ceyhan,Adana,osm_overpass,suburb,36.9799624,35.4149209
Güzelardıç,güzelardıç,guzelardic,Ceyhan,Adana,osm_overpass,neighbourhood,37.5387968,34.9431887
Güzelevler,güzelevler,guzelevler,Ceyhan,Adana,osm_overpass,suburb,36.9760134,35.3894408
Güzelyalı,güzelyalı,guzelyali,Ceyhan,Adana,osm_overpass,suburb,37.0470729,35.3094964
Hacı Müminler,hacı müminler,haci muminler,Ceyhan,Adana,osm_overpass,neighbourhood,36.7698974,35.5615176
Hacıhüseyinler,hacıhüseyinler,hacihuseyinler,Ceyhan,Adana,osm_overpass,neighbourhood,36.7662654,35.5669304
Hacıkerimli,hacıkerimli,hacikerimli,Ceyhan,Adana,osm_overpass,neighbourhood,37.4782979,35.5723572
Hacımirzalı,hacımirzalı,hacimirzali,Ceyhan,Adana,osm_overpass,suburb,37.470631,35.8115713
Hacıuşağı,hacıuşağı,haciusagi,Ceyhan,Adana,osm_overpass,suburb,37.4452824,35.8167593
Hanedan,hanedan,hanedan,Ceyhan,Adana,osm_overpass,suburb,36.9870599,35.3201007
Hasan Çavuşlar,hasan çavuşlar,hasan cavuslar,Ceyhan,Adana,osm_overpass,neighbourhood,37.7884036,35.580951
Hasanefendi,hasanefendi,hasanefendi,Ceyhan,Adana,osm_overpass,neighbourhood,37.1341823,35.5467367
Havraniye Mah.,havraniye,havraniye,Ceyhan,Adana,osm_overpass,suburb,36.9517723,35.6245489
Havutlu,havutlu,havutlu,Ceyhan,Adana,osm_overpass,suburb,36.9260329,35.343285
Havuzlubahçe,havuzlubahçe,havuzlubahce,Ceyhan,Adana,osm_overpass,suburb,36.9756783,35.318942
Haydaroğlu,haydaroğlu,haydaroglu,Ceyhan,Adana,osm_overpass,suburb,36.9684406,35.3383799
Horzum Yaylası,horzum yaylası,horzum yaylasi,Ceyhan,Adana,osm_overpass,neighbourhood,37.6272879,35.8492297
Hurmalı,hurmalı,hurmali,Ceyhan,Adana,osm_overpass,suburb,36.9890824,35.3182125
Huzurevleri,huzurevleri,huzurevleri,Ceyhan,Adana,osm_overpass,suburb,37.0381461,35.2789157
Hürriyet,hürriyet,hurriyet,Ceyhan,Adana,osm_overpass,suburb,36.9914361,35.4360103
İkisu,i̇kisu,i̇kisu,Ceyhan,Adana,osm_overpass,quarter,36.7692653,35.6997838
İnceler,i̇nceler,i̇nceler,Ceyhan,Adana,osm_overpass,neighbourhood,37.3699611,35.2259552
İncirli,i̇ncirli,i̇ncirli,Ceyhan,Adana,osm_overpass,neighbourhood,36.8933838,35.9471357
İncirlik,i̇ncirlik,i̇ncirlik,Ceyhan,Adana,osm_overpass,quarter,36.9929052,35.4399739
İnönü,i̇nönü,i̇nonu,Ceyhan,Adana,osm_overpass,suburb,37.0453958,35.8191283
İslam Mah.,i̇slam,i̇slam,Ceyhan,Adana,osm_overpass,suburb,37.8150006,35.9115141
İslamoğlu,i̇slamoğlu,i̇slamoglu,Ceyhan,Adana,osm_overpass,neighbourhood,37.087355,35.9980304
İsmetpaşa,i̇smetpaşa,i̇smetpasa,Ceyhan,Adana,osm_overpass,suburb,37.007762,35.287528
İstiklal,i̇stiklal,i̇stiklal,Ceyhan,Adana,osm_overpass,suburb,37.0448405,35.4570946
Kabasakal,kabasakal,kabasakal,Ceyhan,Adana,osm_overpass,suburb,37.0556288,35.2268854
Kadirin Çiftliği,kadirin çiftliği,kadirin ciftligi,Ceyhan,Adana,osm_overpass,neighbourhood,37.1427008,35.5330682
Kale Arkası,kale arkası,kale arkasi,Ceyhan,Adana,osm_overpass,neighbourhood,37.4101156,35.8018391
Kamışoba,kamışoba,kamisoba,Ceyhan,Adana,osm_overpass,neighbourhood,37.2930458,35.8355963
Karacaoğlan Mah.,karacaoğlan,karacaoglan,Ceyhan,Adana,osm_overpass,suburb,37.8138123,35.9143922
Karacauşağı,karacauşağı,karacausagi,Ceyhan,Adana,osm_overpass,suburb,37.8042911,35.8773565
Karadurdular,karadurdular,karadurdular,Ceyhan,Adana,osm_overpass,neighbourhood,38.3493427,36.3828862
Karahamzauşağı,karahamzauşağı,karahamzausagi,Ceyhan,Adana,osm_overpass,neighbourhood,37.3803713,35.0802791
Karahan,karahan,karahan,Ceyhan,Adana,osm_overpass,suburb,37.0558123,35.1741438
Karalar,karalar,karalar,Ceyhan,Adana,osm_overpass,neighbourhood,37.1985406,35.263094
Karamanlı,karamanlı,karamanli,Ceyhan,Adana,osm_overpass,neighbourhood,37.3443173,35.8101189
Karamusalı,karamusalı,karamusali,Ceyhan,Adana,osm_overpass,neighbourhood,37.5842795,35.8375744
Karaosmanlar,karaosmanlar,karaosmanlar,Ceyhan,Adana,osm_overpass,neighbourhood,37.3257201,35.763423
Karapınar,karapınar,karapinar,Ceyhan,Adana,osm_overpass,suburb,37.2571054,35.0601434
Karasoku,karasoku,karasoku,Ceyhan,Adana,osm_overpass,suburb,36.9853117,35.3273534
Karataş,karataş,karatas,Ceyhan,Adana,osm_overpass,neighbourhood,37.8443636,35.6149374
Karatepe,karatepe,karatepe,Ceyhan,Adana,osm_overpass,neighbourhood,36.9085622,35.9337283
Karaçalılık,karaçalılık,karacalilik,Ceyhan,Adana,osm_overpass,neighbourhood,37.8729987,36.2313115
Karcılar,karcılar,karcilar,Ceyhan,Adana,osm_overpass,neighbourhood,37.1171186,35.6452945
Kargapazarı,kargapazarı,kargapazari,Ceyhan,Adana,osm_overpass,neighbourhood,37.671195,36.0010373
Karmış,karmış,karmis,Ceyhan,Adana,osm_overpass,neighbourhood,37.4148308,35.2365545
Karslılar,karslılar,karslilar,Ceyhan,Adana,osm_overpass,suburb,37.058692,35.2935969
Karşıyaka,karşıyaka,karsiyaka,Ceyhan,Adana,osm_overpass,suburb,36.973197,35.5656675
Katarası,katarası,katarasi,Ceyhan,Adana,osm_overpass,neighbourhood,38.23354,36.3600031
Kavaklı,kavaklı,kavakli,Ceyhan,Adana,osm_overpass,suburb,37.0004454,35.1980993
Kayalıbağ,kayalıbağ,kayalibag,Ceyhan,Adana,osm_overpass,suburb,36.9896994,35.3315162
Kayauşağı,kayauşağı,kayausagi,Ceyhan,Adana,osm_overpass,neighbourhood,37.5475674,35.7128459
Kazancı,kazancı,kazanci,Ceyhan,Adana,osm_overpass,suburb,37.8082477,35.9377347
Kazım Karabekir,kazım karabekir,kazim karabekir,Ceyhan,Adana,osm_overpass,suburb,37.0090642,35.3487681
Keklikçi,keklikçi,keklikci,Ceyhan,Adana,osm_overpass,suburb,37.8367931,35.9117103
Kemaliye,kemaliye,kemaliye,Ceyhan,Adana,osm_overpass,suburb,36.564615,35.3816755
Kemalpaşa,kemalpaşa,kemalpasa,Ceyhan,Adana,osm_overpass,suburb,36.9941593,35.4414219
Kesiri,kesiri,kesiri,Ceyhan,Adana,osm_overpass,neighbourhood,37.2306701,35.1632022
Kevizli,kevizli,kevizli,Ceyhan,Adana,osm_overpass,neighbourhood,37.3895014,35.1543939
Keçebe,keçebe,kecebe,Ceyhan,Adana,osm_overpass,neighbourhood,37.1225831,36.028676
Kirazlı,kirazlı,kirazli,Ceyhan,Adana,osm_overpass,neighbourhood,37.0146595,35.6010754
Kiremithane,kiremithane,kiremithane,Ceyhan,Adana,osm_overpass,suburb,37.0034438,35.372672
Kireç,kireç,kirec,Ceyhan,Adana,osm_overpass,neighbourhood,38.148603,36.3205849
Kocaoluk Yaylası,kocaoluk yaylası,kocaoluk yaylasi,Ceyhan,Adana,osm_overpass,neighbourhood,37.4198845,35.075655
Kocatepe,kocatepe,kocatepe,Ceyhan,Adana,osm_overpass,suburb,37.1080899,35.1092862
Kocavezir,kocavezir,kocavezir,Ceyhan,Adana,osm_overpass,suburb,36.9844889,35.3216028
Koltaklı,koltaklı,koltakli,Ceyhan,Adana,osm_overpass,neighbourhood,37.4697917,35.557766
Konakoğlu,konakoğlu,konakoglu,Ceyhan,Adana,osm_overpass,suburb,37.0279332,35.812806
Koruklu,koruklu,koruklu,Ceyhan,Adana,osm_overpass,suburb,37.053796,35.8099034
Koza,koza,koza,Ceyhan,Adana,osm_overpass,suburb,37.0023986,35.2092222
Kurtoğlu,kurtoğlu,kurtoglu,Ceyhan,Adana,osm_overpass,neighbourhood,37.349196,35.801053
Kurttepe,kurttepe,kurttepe,Ceyhan,Adana,osm_overpass,suburb,37.0593667,35.2722461
Kurtuluş,kurtuluş,kurtulus,Ceyhan,Adana,osm_overpass,suburb,37.4256429,34.8735232
Kuruköprü,kuruköprü,kurukopru,Ceyhan,Adana,osm_overpass,suburb,36.9883968,35.3232765
Kuzören,kuzören,kuzoren,Ceyhan,Adana,osm_overpass,neighbourhood,37.5677842,35.7145679
Köleli,köleli,koleli,Ceyhan,Adana,osm_overpass,neighbourhood,37.8230737,35.9577369
Köpekli,köpekli,kopekli,Ceyhan,Adana,osm_overpass,neighbourhood,37.3844122,35.1969766
Köprülü,köprülü,koprulu,Ceyhan,Adana,osm_overpass,suburb,37.0122855,35.3376102
Köşkerli,köşkerli,koskerli,Ceyhan,Adana,osm_overpass,neighbourhood,37.5324523,35.2546526
Kücük Camuzağlı,kücük camuzağlı,kucuk camuzagli,Ceyhan,Adana,osm_overpass,neighbourhood,37.2546532,35.8279288
Kürkçüler,kürkçüler,kurkculer,Ceyhan,Adana,osm_overpass,quarter,36.9897445,35.5092892
Küçükiniş,küçükiniş,kucukinis,Ceyhan,Adana,osm_overpass,neighbourhood,37.1021905,35.6188291
Küçükkırım,küçükkırım,kucukkirim,Ceyhan,Adana,osm_overpass,suburb,37.0412707,35.8096609
Küçükçınar,küçükçınar,kucukcinar,Ceyhan,Adana,osm_overpass,neighbourhood,37.1785295,34.9930016
Kızıldağ Yaylası,kızıldağ yaylası,kizildag yaylasi,Ceyhan,Adana,osm_overpass,neighbourhood,37.4148741,35.040164
Kızılhöyük,kızılhöyük,kizilhoyuk,Ceyhan,Adana,osm_overpass,neighbourhood,37.4351694,35.5560708
Kışla,kışla,kisla,Ceyhan,Adana,osm_overpass,suburb,37.0218115,35.3376102
Levent,levent,levent,Ceyhan,Adana,osm_overpass,suburb,36.9789695,35.3764915
mahalle,mahalle,mahalle,Ceyhan,Adana,osm_overpass,neighbourhood,37.2586765,35.2915141
Mahfesığmaz,mahfesığmaz,mahfesigmaz,Ceyhan,Adana,osm_overpass,suburb,37.0393845,35.3095437
Mahmudiye,mahmudiye,mahmudiye,Ceyhan,Adana,osm_overpass,quarter,37.217562,35.9760383
Mahmutlu,mahmutlu,mahmutlu,Ceyhan,Adana,osm_overpass,neighbourhood,37.4334911,35.8371288
Mansurlu Mah.,mansurlu,mansurlu,Ceyhan,Adana,osm_overpass,suburb,37.5472253,35.3961374
Maran Yaylası,maran yaylası,maran yaylasi,Ceyhan,Adana,osm_overpass,neighbourhood,37.8349713,35.8144748
Mehmet Akif Ersoy,mehmet akif ersoy,mehmet akif ersoy,Ceyhan,Adana,osm_overpass,suburb,37.0160091,35.3904277
Mekan,mekan,mekan,Ceyhan,Adana,osm_overpass,suburb,36.9957966,35.188822
Memi,memi,memi,Ceyhan,Adana,osm_overpass,neighbourhood,37.4488712,35.8529645
Menteş,menteş,mentes,Ceyhan,Adana,osm_overpass,neighbourhood,37.2552681,35.6928152
Mestanzade,mestanzade,mestanzade,Ceyhan,Adana,osm_overpass,suburb,36.9789695,35.3322458
Meydan,meydan,meydan,Ceyhan,Adana,osm_overpass,suburb,36.9854145,35.3029775
Meydan Yaylası,meydan yaylası,meydan yaylasi,Ceyhan,Adana,osm_overpass,neighbourhood,37.529536,35.3789055
Mezit,mezit,mezit,Ceyhan,Adana,osm_overpass,neighbourhood,37.3981702,35.1860332
Mirzaçelebi,mirzaçelebi,mirzacelebi,Ceyhan,Adana,osm_overpass,suburb,36.9817464,35.3163242
Misis,misis,misis,Ceyhan,Adana,osm_overpass,quarter,36.9626028,35.6270367
Mithat Paşa,mithat paşa,mithat pasa,Ceyhan,Adana,osm_overpass,suburb,37.0215837,35.8257141
Mithatpaşa,mithatpaşa,mithatpasa,Ceyhan,Adana,osm_overpass,suburb,37.0088586,35.301218
Modernevler,modernevler,modernevler,Ceyhan,Adana,osm_overpass,suburb,37.016838,35.8047714
Mollaömerli,mollaömerli,mollaomerli,Ceyhan,Adana,osm_overpass,neighbourhood,37.3953318,35.2609527
Muradiye,muradiye,muradiye,Ceyhan,Adana,osm_overpass,suburb,37.0218236,35.8098354
Mutlu,mutlu,mutlu,Ceyhan,Adana,osm_overpass,suburb,37.0051003,35.3853648
Müminli,müminli,muminli,Ceyhan,Adana,osm_overpass,suburb,36.9967222,35.512508
Mıdık,mıdık,midik,Ceyhan,Adana,osm_overpass,suburb,36.9502348,35.314865
Namık Kemal,namık kemal,namik kemal,Ceyhan,Adana,osm_overpass,suburb,37.0120406,35.8196416
Narlıca,narlıca,narlica,Ceyhan,Adana,osm_overpass,suburb,36.9995367,35.2949094
Niğdeliler,niğdeliler,nigdeliler,Ceyhan,Adana,osm_overpass,neighbourhood,37.1186477,35.5796592
Okurlar,okurlar,okurlar,Ceyhan,Adana,osm_overpass,neighbourhood,37.0291293,35.5556087
Onur,onur,onur,Ceyhan,Adana,osm_overpass,suburb,36.9915162,35.2670573
Orhangazi,orhangazi,orhangazi,Ceyhan,Adana,osm_overpass,suburb,37.0362248,35.4242708
Orta,orta,orta,Ceyhan,Adana,osm_overpass,neighbourhood,37.3558469,35.7458184
Orta Eğriçam,orta eğriçam,orta egricam,Ceyhan,Adana,osm_overpass,neighbourhood,37.3675209,35.519777
Ortahüyük,ortahüyük,ortahuyuk,Ceyhan,Adana,osm_overpass,neighbourhood,37.2906017,35.607845
Ortaoluk,ortaoluk,ortaoluk,Ceyhan,Adana,osm_overpass,neighbourhood,38.1559409,36.3242993
Osmangazi,osmangazi,osmangazi,Ceyhan,Adana,osm_overpass,suburb,37.0723571,35.4075704
Ova,ova,ova,Ceyhan,Adana,osm_overpass,suburb,36.9834262,35.2673148
P.T.T,p.t.t,p.t.t,Ceyhan,Adana,osm_overpass,suburb,37.0216744,35.3672217
Pınar,pınar,pinar,Ceyhan,Adana,osm_overpass,suburb,37.0222226,35.2861976
Remzi Oğuz Arık,remzi oğuz arık,remzi oguz arik,Ceyhan,Adana,osm_overpass,suburb,37.0176763,35.3859562
Reşatbey,reşatbey,resatbey,Ceyhan,Adana,osm_overpass,suburb,36.9951837,35.332117
Sakarya,sakarya,sakarya,Ceyhan,Adana,osm_overpass,suburb,36.9949439,35.3004455
Saklı,saklı,sakli,Ceyhan,Adana,osm_overpass,neighbourhood,37.2225452,35.1411394
Saklıcennet,saklıcennet,saklicennet,Ceyhan,Adana,osm_overpass,neighbourhood,37.6116478,34.9758446
Sakıztepe,sakıztepe,sakiztepe,Ceyhan,Adana,osm_overpass,neighbourhood,37.4033949,35.6307112
Salbaş,salbaş,salbas,Ceyhan,Adana,osm_overpass,quarter,37.1102933,35.112182
Salbaş Esentepe,salbaş esentepe,salbas esentepe,Ceyhan,Adana,osm_overpass,suburb,37.1190723,35.1239973
Sarıağaç,sarıağaç,sariagac,Ceyhan,Adana,osm_overpass,neighbourhood,37.4579547,35.5200863
Sarıhamzalı,sarıhamzalı,sarihamzali,Ceyhan,Adana,osm_overpass,suburb,36.9782976,35.2246829
Sarısakal,sarısakal,sarisakal,Ceyhan,Adana,osm_overpass,suburb,37.0125204,35.8054366
Sarıyakup,sarıyakup,sariyakup,Ceyhan,Adana,osm_overpass,suburb,36.9820892,35.329113
Sarıyakuplu,sarıyakuplu,sariyakuplu,Ceyhan,Adana,osm_overpass,neighbourhood,37.9865742,36.0409498
Sarız,sarız,sariz,Ceyhan,Adana,osm_overpass,neighbourhood,37.8112758,35.7052714
Sarıçam,sarıçam,saricam,Ceyhan,Adana,osm_overpass,suburb,36.9925102,35.3540468
Selahattin Eyyubi,selahattin eyyubi,selahattin eyyubi,Ceyhan,Adana,osm_overpass,suburb,37.0088586,35.3705691
Selampınar,selampınar,selampinar,Ceyhan,Adana,osm_overpass,suburb,37.2569048,35.0571333
Serinevler,serinevler,serinevler,Ceyhan,Adana,osm_overpass,suburb,36.8715789,35.244956
Seyhan,seyhan,seyhan,Ceyhan,Adana,osm_overpass,suburb,36.9658379,35.3328895
Sinanpaşa Mah.,sinanpaşa,sinanpasa,Ceyhan,Adana,osm_overpass,suburb,37.5465243,35.394306
Sivişli,sivişli,sivisli,Ceyhan,Adana,osm_overpass,neighbourhood,37.4884633,35.1577865
Sofudede,sofudede,sofudede,Ceyhan,Adana,osm_overpass,neighbourhood,37.4214724,35.2744183
Solakkadirli,solakkadirli,solakkadirli,Ceyhan,Adana,osm_overpass,neighbourhood,37.2866181,35.2729902
Solaklı,solaklı,solakli,Ceyhan,Adana,osm_overpass,quarter,36.8065107,35.336982
Solaklı Cumhuriyet Mah.,solaklı cumhuriyet,solakli cumhuriyet,Ceyhan,Adana,osm_overpass,suburb,36.8068983,35.3340099
Solaklı Hürriyet Mah.,solaklı hürriyet,solakli hurriyet,Ceyhan,Adana,osm_overpass,suburb,36.8041136,35.3381261
Soğukoluk,soğukoluk,sogukoluk,Ceyhan,Adana,osm_overpass,neighbourhood,37.6037773,35.2465975
Sucuzade,sucuzade,sucuzade,Ceyhan,Adana,osm_overpass,suburb,36.9801694,35.3210449
Suluca,suluca,suluca,Ceyhan,Adana,osm_overpass,quarter,36.9749005,35.5697393
Söğütlü,söğütlü,sogutlu,Ceyhan,Adana,osm_overpass,suburb,37.0014904,35.2057876
Sülemişli,sülemişli,sulemisli,Ceyhan,Adana,osm_overpass,suburb,37.8491756,35.9391385
Sülmen,sülmen,sulmen,Ceyhan,Adana,osm_overpass,neighbourhood,37.8917637,36.2214625
Sümer,sümer,sumer,Ceyhan,Adana,osm_overpass,suburb,37.0134506,35.3183841
Sürmeliler,sürmeliler,surmeliler,Ceyhan,Adana,osm_overpass,neighbourhood,37.3638302,35.1437026
Tabanlı,tabanlı,tabanli,Ceyhan,Adana,osm_overpass,neighbourhood,37.4206583,35.2140453
Tahsilli,tahsilli,tahsilli,Ceyhan,Adana,osm_overpass,suburb,37.0002907,35.3587245
Tanrıverdi,tanrıverdi,tanriverdi,Ceyhan,Adana,osm_overpass,neighbourhood,36.8032888,35.3101659
Tapantepe,tapantepe,tapantepe,Ceyhan,Adana,osm_overpass,neighbourhood,37.0790919,35.1761734
Tarsuslu,tarsuslu,tarsuslu,Ceyhan,Adana,osm_overpass,neighbourhood,37.2996096,35.6660145
Tavşantepe,tavşantepe,tavsantepe,Ceyhan,Adana,osm_overpass,suburb,37.4427539,35.8265
Taş,taş,tas,Ceyhan,Adana,osm_overpass,suburb,37.444743,35.8148278
Tekdam,tekdam,tekdam,Ceyhan,Adana,osm_overpass,neighbourhood,37.3154993,35.4949593
Tellidere,tellidere,tellidere,Ceyhan,Adana,osm_overpass,suburb,37.0223597,35.2968406
Tepebağ,tepebağ,tepebag,Ceyhan,Adana,osm_overpass,suburb,36.9880197,35.3274822
Toklular,toklular,toklular,Ceyhan,Adana,osm_overpass,neighbourhood,37.3638875,35.8070132
Topallar,topallar,topallar,Ceyhan,Adana,osm_overpass,neighbourhood,37.3295495,35.7580591
Topçular,topçular,topcular,Ceyhan,Adana,osm_overpass,neighbourhood,37.4085509,35.5445479
Toros,toros,toros,Ceyhan,Adana,osm_overpass,suburb,37.0395088,35.2991442
Torunlar,torunlar,torunlar,Ceyhan,Adana,osm_overpass,neighbourhood,37.3112498,35.7984728
Tufanli,tufanli,tufanli,Ceyhan,Adana,osm_overpass,neighbourhood,37.7856663,36.003379
Tufanpaşa,tufanpaşa,tufanpasa,Ceyhan,Adana,osm_overpass,suburb,37.4514081,35.8157539
Tuna,tuna,tuna,Ceyhan,Adana,osm_overpass,suburb,37.2580103,35.6638203
Tömek,tömek,tomek,Ceyhan,Adana,osm_overpass,neighbourhood,37.0497669,35.1232605
Türkeli,türkeli,turkeli,Ceyhan,Adana,osm_overpass,suburb,37.4637157,35.8281323
Türkocağı,türkocağı,turkocagi,Ceyhan,Adana,osm_overpass,suburb,36.9819864,35.3333187
Tılan,tılan,tilan,Ceyhan,Adana,osm_overpass,neighbourhood,37.2952001,35.8081241
Ulubatlı Hasan,ulubatlı hasan,ulubatli hasan,Ceyhan,Adana,osm_overpass,suburb,37.0050483,35.3807976
Ulucamii,ulucamii,ulucamii,Ceyhan,Adana,osm_overpass,suburb,36.9852431,35.3318166
Ulus,ulus,ulus,Ceyhan,Adana,osm_overpass,suburb,37.0271966,35.8236421
Ustahasanlar,ustahasanlar,ustahasanlar,Ceyhan,Adana,osm_overpass,neighbourhood,37.1138227,35.5291843
Uçak,uçak,ucak,Ceyhan,Adana,osm_overpass,suburb,36.9854831,35.2785586
Varsaklar,varsaklar,varsaklar,Ceyhan,Adana,osm_overpass,suburb,37.4474899,35.7925326
Venk,venk,venk,Ceyhan,Adana,osm_overpass,neighbourhood,37.9629613,36.0237193
Yakapınar,yakapınar,yakapinar,Ceyhan,Adana,osm_overpass,suburb,36.9586275,35.6084713
Yamaçlı,yamaçlı,yamacli,Ceyhan,Adana,osm_overpass,suburb,36.9771182,35.3428458
Yarsuat,yarsuat,yarsuat,Ceyhan,Adana,osm_overpass,suburb,37.0440708,35.8095231
Yarımoğlu,yarımoğlu,yarimoglu,Ceyhan,Adana,osm_overpass,suburb,37.4429421,35.8149488
Yavuz Sultan Selim,yavuz sultan selim,yavuz sultan selim,Ceyhan,Adana,osm_overpass,suburb,37.0408505,35.4208235
Yavuzlar,yavuzlar,yavuzlar,Ceyhan,Adana,osm_overpass,suburb,37.0015931,35.3454208
yayla,yayla,yayla,Ceyhan,Adana,osm_overpass,neighbourhood,37.4939581,35.3675062
Yağlıören,yağlıören,yaglioren,Ceyhan,Adana,osm_overpass,neighbourhood,37.404214,35.5763282
Yedigöz,yedigöz,yedigoz,Ceyhan,Adana,osm_overpass,neighbourhood,37.9229693,35.6161996
Yeni,yeni,yeni,Ceyhan,Adana,osm_overpass,suburb,36.9862068,35.4371303
Yeni Konacık,yeni konacık,yeni konacik,Ceyhan,Adana,osm_overpass,suburb,37.4225653,34.8452639
Yeni Mahalle,yeni mahalle,yeni mahalle,Ceyhan,Adana,osm_overpass,suburb,37.1089745,35.113883
Yenibaraj,yenibaraj,yenibaraj,Ceyhan,Adana,osm_overpass,suburb,37.0223561,35.3194396
Yenibey,yenibey,yenibey,Ceyhan,Adana,osm_overpass,suburb,36.970844,35.3263235
Yenicami,yenicami,yenicami,Ceyhan,Adana,osm_overpass,suburb,38.2638869,36.2219155
Yenidoğan,yenidoğan,yenidogan,Ceyhan,Adana,osm_overpass,suburb,36.9880883,35.3846454
Yenievler,yenievler,yenievler,Ceyhan,Adana,osm_overpass,neighbourhood,37.2254668,35.6511712
Yenimahalle,yenimahalle,yenimahalle,Ceyhan,Adana,osm_overpass,suburb,37.0176312,35.2439688
Yeşil Bağlar,yeşil bağlar,yesil baglar,Ceyhan,Adana,osm_overpass,suburb,36.9711526,35.3626727
Yeşil Düşmüş Mah.,yeşil düşmüş,yesil dusmus,Ceyhan,Adana,osm_overpass,suburb,37.8140898,35.9092212
Yeşilbağlar Mah.,yeşilbağlar,yesilbaglar,Ceyhan,Adana,osm_overpass,suburb,37.9859464,36.0886575
Yeşilevler,yeşilevler,yesilevler,Ceyhan,Adana,osm_overpass,suburb,37.0035123,35.2841806
Yeşiloba,yeşiloba,yesiloba,Ceyhan,Adana,osm_overpass,suburb,36.9990569,35.2370166
Yeşilova,yeşilova,yesilova,Ceyhan,Adana,osm_overpass,quarter,37.2265013,35.7501125
Yeşiltepe,yeşiltepe,yesiltepe,Ceyhan,Adana,osm_overpass,suburb,37.0335374,35.4061812
Yeşilyurt,yeşilyurt,yesilyurt,Ceyhan,Adana,osm_overpass,suburb,37.0191389,35.3086852
Yeşilyuva,yeşilyuva,yesilyuva,Ceyhan,Adana,osm_overpass,suburb,36.9852431,35.3143072
Yukarı Kayhan,yukarı kayhan,yukari kayhan,Ceyhan,Adana,osm_overpass,neighbourhood,37.3898529,35.8286532
Yunus Emre,yunus emre,yunus emre,Ceyhan,Adana,osm_overpass,suburb,36.9780439,35.356965
Yunusoğlu,yunusoğlu,yunusoglu,Ceyhan,Adana,osm_overpass,quarter,36.8156967,35.2781064
Yunusoğlu Cumhuriyet Mah.,yunusoğlu cumhuriyet,yunusoglu cumhuriyet,Ceyhan,Adana,osm_overpass,suburb,36.8147327,35.2770318
Yunusoğlu Hürriyet,yunusoğlu hürriyet,yunusoglu hurriyet,Ceyhan,Adana,osm_overpass,suburb,36.8169784,35.278414
Yurt,yurt,yurt,Ceyhan,Adana,osm_overpass,suburb,37.0421391,35.2876665
Yörükler,yörükler,yorukler,Ceyhan,Adana,osm_overpass,neighbourhood,37.1588031,35.6046295
Yürekli,yürekli,yurekli,Ceyhan,Adana,osm_overpass,suburb,36.9884213,35.5103596
Yüzüncüyıl,yüzüncüyıl,yuzuncuyil,Ceyhan,Adana,osm_overpass,suburb,37.0440515,35.2458702
Yıldırım Beyazıt,yıldırım beyazıt,yildirim beyazit,Ceyhan,Adana,osm_overpass,suburb,37.0261944,35.4005904
Zafer,zafer,zafer,Ceyhan,Adana,osm_overpass,suburb,37.4277436,34.8720722
Zeynepli,zeynepli,zeynepli,Ceyhan,Adana,osm_overpass,neighbourhood,36.7365055,35.5782172
Zeynepoğlu,zeynepoğlu,zeynepoglu,Ceyhan,Adana,osm_overpass,neighbourhood,37.4314917,35.3033448
Ziyapaşa,ziyapaşa,ziyapasa,Ceyhan,Adana,osm_overpass,suburb,37.0098524,35.3291988
Ziyelli,ziyelli,ziyelli,Ceyhan,Adana,osm_overpass,neighbourhood,37.7931007,35.8027267
Zübeyde Hanım,zübeyde hanım,zubeyde hanim,Ceyhan,Adana,osm_overpass,suburb,37.0317532,35.8137287
Çamdere,çamdere,camdere,Ceyhan,Adana,osm_overpass,neighbourhood,37.6267656,35.8488632
Çamlıbel,çamlıbel,camlibel,Ceyhan,Adana,osm_overpass,suburb,36.9982343,35.3849887
Çanaklı,çanaklı,canakli,Ceyhan,Adana,osm_overpass,suburb,37.4541032,35.7939878
Çarkıpare,çarkıpare,carkipare,Ceyhan,Adana,osm_overpass,suburb,37.0681131,35.3853975
Çataoluk Yaylası,çataoluk yaylası,cataoluk yaylasi,Ceyhan,Adana,osm_overpass,neighbourhood,37.7942502,35.7798583
Çavuşa,çavuşa,cavusa,Ceyhan,Adana,osm_overpass,neighbourhood,37.3303362,35.7663131
Çeceli,çeceli,ceceli,Ceyhan,Adana,osm_overpass,suburb,37.2518458,35.0618999
Çevlik,çevlik,cevlik,Ceyhan,Adana,osm_overpass,neighbourhood,37.3920246,35.0375676
Çiftlik,çiftlik,ciftlik,Ceyhan,Adana,osm_overpass,neighbourhood,38.1218589,36.1110075
Çolak Hasan,çolak hasan,colak hasan,Ceyhan,Adana,osm_overpass,neighbourhood,37.3674518,35.8035371
Çorcular,çorcular,corcular,Ceyhan,Adana,osm_overpass,neighbourhood,37.7719625,36.0016367
Çukurkamış,çukurkamış,cukurkamis,Ceyhan,Adana,osm_overpass,neighbourhood,37.1362008,35.7558256
Çungurlu,çungurlu,cungurlu,Ceyhan,Adana,osm_overpass,neighbourhood,37.1228254,35.2092223
Çöbük,çöbük,cobuk,Ceyhan,Adana,osm_overpass,neighbourhood,37.384685,35.5810261
Çömekli,çömekli,comekli,Ceyhan,Adana,osm_overpass,neighbourhood,37.478928,35.195213
Çömrük,çömrük,comruk,Ceyhan,Adana,osm_overpass,neighbourhood,37.6085599,35.5967615
Çınarlı,çınarlı,cinarli,Ceyhan,Adana,osm_overpass,suburb,37.0717705,35.3935739
Ören,ören,oren,Ceyhan,Adana,osm_overpass,suburb,36.7687207,35.787719
Özgür,özgür,ozgur,Ceyhan,Adana,osm_overpass,suburb,36.9888082,35.3571367
Özler,özler,ozler,Ceyhan,Adana,osm_overpass,suburb,36.9105375,35.5662027
Üçdut,üçdut,ucdut,Ceyhan,Adana,osm_overpass,quarter,37.2495955,35.7475055
Üçhüyük,üçhüyük,uchuyuk,Ceyhan,Adana,osm_overpass,neighbourhood,37.2726266,35.7808944
Şahin Özbilen,şahin özbilen,sahin ozbilen,Ceyhan,Adana,osm_overpass,suburb,37.0349878,35.8294746
Şahintepe,şahintepe,sahintepe,Ceyhan,Adana,osm_overpass,suburb,37.0311588,35.4144768
Şahintepesi,şahintepesi,sahintepesi,Ceyhan,Adana,osm_overpass,neighbourhood,37.6370576,34.9839234
Şakirpaşa,şakirpaşa,sakirpasa,Ceyhan,Adana,osm_overpass,suburb,36.9915847,35.2821635
Şambayadı,şambayadı,sambayadi,Ceyhan,Adana,osm_overpass,suburb,37.0425121,35.1982698
Şarıklı,şarıklı,sarikli,Ceyhan,Adana,osm_overpass,neighbourhood,37.2071057,35.3621892
Şehit Erkut Akbay,şehit erkut akbay,sehit erkut akbay,Ceyhan,Adana,osm_overpass,suburb,36.998577,35.3750323
Şehit Hacı İbrahim,şehit hacı i̇brahim,sehit haci i̇brahim,Ceyhan,Adana,osm_overpass,suburb,37.035967,35.8156559
Şehitduran,şehitduran,sehitduran,Ceyhan,Adana,osm_overpass,suburb,36.9750611,35.3317308
Şevkiye,şevkiye,sevkiye,Ceyhan,Adana,osm_overpass,suburb,37.4491619,35.8055469
Şeyhganim,şeyhganim,seyhganim,Ceyhan,Adana,osm_overpass,neighbourhood,36.7392796,35.5116856
19 Mayıs,19 mayıs,19 mayis,Karataş,Adana,osm_overpass,suburb,36.9774268,35.3637886
2000 Evler,2000 evler,2000 evler,Karataş,Adana,osm_overpass,suburb,37.0289578,35.2656922
Abacılar,abacılar,abacilar,Karataş,Adana,osm_overpass,neighbourhood,37.0972102,35.1571727
Abdilli,abdilli,abdilli,Karataş,Adana,osm_overpass,neighbourhood,37.3332623,35.231148
Abdiluşağı,abdiluşağı,abdilusagi,Karataş,Adana,osm_overpass,neighbourhood,37.3138865,35.598557
Abdioğlu,abdioğlu,abdioglu,Karataş,Adana,osm_overpass,quarter,36.9096872,35.5657486
Abdioğlu Cumhuriyet Mah.,abdioğlu cumhuriyet,abdioglu cumhuriyet,Karataş,Adana,osm_overpass,suburb,36.9086652,35.5647977
Acıdere,acıdere,acidere,Karataş,Adana,osm_overpass,suburb,36.9773106,35.5734772
Acıdere OSB,acıdere osb,acidere osb,Karataş,Adana,osm_overpass,suburb,36.9695411,35.5961751
Adalet,adalet,adalet,Karataş,Adana,osm_overpass,suburb,37.2615096,35.6629092
Ahmet Remzi Yüreğir,ahmet remzi yüreğir,ahmet remzi yuregir,Karataş,Adana,osm_overpass,suburb,36.9971717,35.30375
Akdeniz,akdeniz,akdeniz,Karataş,Adana,osm_overpass,suburb,36.7761733,35.7967353
Akkapı,akkapı,akkapi,Karataş,Adana,osm_overpass,suburb,36.9645693,35.3077411
Akkoca,akkoca,akkoca,Karataş,Adana,osm_overpass,neighbourhood,37.6061699,35.6210285
Akmaşat,akmaşat,akmasat,Karataş,Adana,osm_overpass,neighbourhood,37.1786325,35.7308201
Akpınar,akpınar,akpinar,Karataş,Adana,osm_overpass,suburb,37.5242457,35.402761
Aktaşalanı,aktaşalanı,aktasalani,Karataş,Adana,osm_overpass,neighbourhood,38.3542087,36.2728774
Akyuva,akyuva,akyuva,Karataş,Adana,osm_overpass,suburb,36.780647,35.8076391
Akıncılar,akıncılar,akincilar,Karataş,Adana,osm_overpass,suburb,36.9977544,35.3522872
Aliağalar,aliağalar,aliagalar,Karataş,Adana,osm_overpass,neighbourhood,37.3240715,35.7909898
Alidede,alidede,alidede,Karataş,Adana,osm_overpass,suburb,36.9818835,35.3261947
Alifakılı,alifakılı,alifakili,Karataş,Adana,osm_overpass,neighbourhood,37.5477928,35.6935501
Altıocak,altıocak,altiocak,Karataş,Adana,osm_overpass,suburb,37.0479264,35.8166872
Anadolu,anadolu,anadolu,Karataş,Adana,osm_overpass,suburb,36.9795181,35.352888
Arapismaildamı Yaylası,arapismaildamı yaylası,arapismaildami yaylasi,Karataş,Adana,osm_overpass,neighbourhood,38.03705,35.96136
Arslanpaşa,arslanpaşa,arslanpasa,Karataş,Adana,osm_overpass,suburb,37.4459481,35.8195545
Atakent,atakent,atakent,Karataş,Adana,osm_overpass,suburb,36.9915847,35.3715133
Atatürk,atatürk,ataturk,Karataş,Adana,osm_overpass,suburb,37.0254387,35.8097743
Avluk,avluk,avluk,Karataş,Adana,osm_overpass,neighbourhood,37.7000699,35.75037
Ayas,ayas,ayas,Karataş,Adana,osm_overpass,suburb,36.7688293,35.7903853
Aydemiroğlu,aydemiroğlu,aydemiroglu,Karataş,Adana,osm_overpass,suburb,37.0330628,35.8153308
Aydınlar,aydınlar,aydinlar,Karataş,Adana,osm_overpass,neighbourhood,36.7369233,34.9904284
Aydınlı,aydınlı,aydinli,Karataş,Adana,osm_overpass,neighbourhood,37.3249487,35.211364
Aynalıçeşme,aynalıçeşme,aynalicesme,Karataş,Adana,osm_overpass,neighbourhood,37.8657319,36.0378814
Ağcakise Yaylası,ağcakise yaylası,agcakise yaylasi,Karataş,Adana,osm_overpass,neighbourhood,37.5370084,35.4255362
Ağlıboğaz,ağlıboğaz,aglibogaz,Karataş,Adana,osm_overpass,suburb,37.473585,35.8348997
Ağpınar,ağpınar,agpinar,Karataş,Adana,osm_overpass,neighbourhood,38.3664107,36.2438992
Aşağı Kayhan,aşağı kayhan,asagi kayhan,Karataş,Adana,osm_overpass,neighbourhood,37.3763861,35.8267201
Aşağıyörükler,aşağıyörükler,asagiyorukler,Karataş,Adana,osm_overpass,suburb,37.2789871,35.0648146
Bahçelievler,bahçelievler,bahcelievler,Karataş,Adana,osm_overpass,suburb,36.9660094,35.3583812
Bahçeşehir,bahçeşehir,bahcesehir,Karataş,Adana,osm_overpass,suburb,37.0289723,35.243785
Balcalı,balcalı,balcali,Karataş,Adana,osm_overpass,suburb,37.0544136,35.3648913
Barbaros,barbaros,barbaros,Karataş,Adana,osm_overpass,suburb,36.9677924,35.3225898
Barış,barış,baris,Karataş,Adana,osm_overpass,suburb,37.0039236,35.2758979
Bağlar,bağlar,baglar,Karataş,Adana,osm_overpass,suburb,37.4549117,35.8399848
Başak,başak,basak,Karataş,Adana,osm_overpass,suburb,36.9833919,35.3637886
Başpınar,başpınar,baspinar,Karataş,Adana,osm_overpass,suburb,37.521345,35.391477
Bekdeş,bekdeş,bekdes,Karataş,Adana,osm_overpass,neighbourhood,37.6871784,35.6927615
Bekirli,bekirli,bekirli,Karataş,Adana,osm_overpass,neighbourhood,37.1348323,36.0216379
Belbaşı,belbaşı,belbasi,Karataş,Adana,osm_overpass,neighbourhood,38.20773,36.3474475
Belediye Evleri,belediye evleri,belediye evleri,Karataş,Adana,osm_overpass,suburb,37.048301,35.8058431
Bey,bey,bey,Karataş,Adana,osm_overpass,suburb,36.9659408,35.3171396
Beyazevler,beyazevler,beyazevler,Karataş,Adana,osm_overpass,suburb,37.0308167,35.3178467
Beyceli,beyceli,beyceli,Karataş,Adana,osm_overpass,suburb,37.0497995,35.4241271
Beşocak,beşocak,besocak,Karataş,Adana,osm_overpass,suburb,36.9796552,35.3267097
Birkent Celiluşağı,birkent celiluşağı,birkent celilusagi,Karataş,Adana,osm_overpass,quarter,37.2143317,35.9922677
Birkent Eskikent,birkent eskikent,birkent eskikent,Karataş,Adana,osm_overpass,quarter,37.2082944,36.0255271
Birkent Yenikent,birkent yenikent,birkent yenikent,Karataş,Adana,osm_overpass,quarter,37.2067221,36.0427577
Bota,bota,bota,Karataş,Adana,osm_overpass,suburb,37.0383318,35.8103022
Boynuyoğun,boynuyoğun,boynuyogun,Karataş,Adana,osm_overpass,suburb,37.0591562,35.4212106
Burhaniye,burhaniye,burhaniye,Karataş,Adana,osm_overpass,suburb,37.0223033,35.8179679
Buruk,buruk,buruk,Karataş,Adana,osm_overpass,quarter,37.0394649,35.4545561
Buruk Cumhuriyet,buruk cumhuriyet,buruk cumhuriyet,Karataş,Adana,osm_overpass,suburb,37.0381814,35.451125
Bürücek,bürücek,burucek,Karataş,Adana,osm_overpass,quarter,37.3482623,34.8251507
Büyükkırım,büyükkırım,buyukkirim,Karataş,Adana,osm_overpass,suburb,37.0233561,35.8120659
Cananlı,cananlı,cananli,Karataş,Adana,osm_overpass,neighbourhood,37.3315732,35.258925
Cemalpaşa,cemalpaşa,cemalpasa,Karataş,Adana,osm_overpass,suburb,37.0031011,35.3295421
Cevherli,cevherli,cevherli,Karataş,Adana,osm_overpass,neighbourhood,37.2616127,35.2591503
Cingöz,cingöz,cingoz,Karataş,Adana,osm_overpass,neighbourhood,37.3687498,35.2619
Civantayak,civantayak,civantayak,Karataş,Adana,osm_overpass,suburb,37.0346512,35.8119415
Cumhuriyet,cumhuriyet,cumhuriyet,Karataş,Adana,osm_overpass,suburb,37.2618768,35.6598164
Cırnazlı,cırnazlı,cirnazli,Karataş,Adana,osm_overpass,neighbourhood,37.5085684,35.5785853
Dadaloğlu,dadaloğlu,dadaloglu,Karataş,Adana,osm_overpass,suburb,37.0030668,35.3632307
Damderesi,damderesi,damderesi,Karataş,Adana,osm_overpass,neighbourhood,37.9076036,35.942502
Dağcı,dağcı,dagci,Karataş,Adana,osm_overpass,suburb,36.9836301,35.5175035
Dağlıcak,dağlıcak,daglicak,Karataş,Adana,osm_overpass,neighbourhood,37.5471548,35.832231
Dağlıoğlu,dağlıoğlu,daglioglu,Karataş,Adana,osm_overpass,suburb,36.9735526,35.3109169
Dede Korkut,dede korkut,dede korkut,Karataş,Adana,osm_overpass,suburb,36.9849688,35.3499269
Demetevler,demetevler,demetevler,Karataş,Adana,osm_overpass,suburb,36.9982,35.2847385
Denizler,denizler,denizler,Karataş,Adana,osm_overpass,neighbourhood,37.3153887,35.7855799
Denizli,denizli,denizli,Karataş,Adana,osm_overpass,suburb,37.0034095,35.2989864
Dereköy,dere,dere,Karataş,Adana,osm_overpass,neighbourhood,37.2752096,35.131398
Dervişler,dervişler,dervisler,Karataş,Adana,osm_overpass,suburb,36.9977544,35.3628444
Devrişiye,devrişiye,devrisiye,Karataş,Adana,osm_overpass,suburb,36.7727766,35.7928864
Doğankent,doğankent,dogankent,Karataş,Adana,osm_overpass,quarter,36.8448092,35.3392419
Doğankent Bahçelievler Mah.,doğankent bahçelievler,dogankent bahcelievler,Karataş,Adana,osm_overpass,suburb,36.8434321,35.3336562
Doğankent Cumhuriyet,doğankent cumhuriyet,dogankent cumhuriyet,Karataş,Adana,osm_overpass,suburb,36.8438173,35.3413716
Doğankent Kışla Mah.,doğankent kışla,dogankent kisla,Karataş,Adana,osm_overpass,suburb,36.8500039,35.3391147
Dumlupınar,dumlupınar,dumlupinar,Karataş,Adana,osm_overpass,suburb,36.9804437,35.3023767
Döşeme,döşeme,doseme,Karataş,Adana,osm_overpass,suburb,36.9950124,35.3137064
Elifçeler,elifçeler,elifceler,Karataş,Adana,osm_overpass,neighbourhood,37.4126414,35.5251503
Emek,emek,emek,Karataş,Adana,osm_overpass,suburb,37.0405565,35.8318717
Emirgazi,emirgazi,emirgazi,Karataş,Adana,osm_overpass,neighbourhood,38.1616405,36.0203482
Emirler,emirler,emirler,Karataş,Adana,osm_overpass,neighbourhood,37.9840078,35.990138
Eseler,eseler,eseler,Karataş,Adana,osm_overpass,neighbourhood,37.5425527,35.6358826
Esentepe,esentepe,esentepe,Karataş,Adana,osm_overpass,suburb,37.0373273,35.4145471
Esirmek,esirmek,esirmek,Karataş,Adana,osm_overpass,neighbourhood,37.7320176,36.013026
Eskiköy,eski,eski,Karataş,Adana,osm_overpass,neighbourhood,37.3620352,35.1182806
Eski Konacık,eski konacık,eski konacik,Karataş,Adana,osm_overpass,suburb,37.3894932,34.8602478
Eski Misis Mah.,eski misis,eski misis,Karataş,Adana,osm_overpass,suburb,36.9604878,35.6265825
Eskiveliler,eskiveliler,eskiveliler,Karataş,Adana,osm_overpass,neighbourhood,37.3429375,35.6872088
Eğriçam,eğriçam,egricam,Karataş,Adana,osm_overpass,neighbourhood,37.3554331,35.5356348
Fatih,fatih,fatih,Karataş,Adana,osm_overpass,suburb,37.2550762,35.6622518
Fatih Sultan Mehmet,fatih sultan mehmet,fatih sultan mehmet,Karataş,Adana,osm_overpass,suburb,37.0399403,35.8225172
Fevzipaşa,fevzipaşa,fevzipasa,Karataş,Adana,osm_overpass,suburb,36.9989198,35.2690314
Fındık Yaylası,fındık yaylası,findik yaylasi,Karataş,Adana,osm_overpass,neighbourhood,37.8037655,35.7678151
Gazi Osman Paşa,gazi osman paşa,gazi osman pasa,Karataş,Adana,osm_overpass,suburb,37.0127945,35.8133115
Gazipaşa Mah.,gazipaşa,gazipasa,Karataş,Adana,osm_overpass,suburb,36.8473377,35.3414196
Geçili,geçili,gecili,Karataş,Adana,osm_overpass,neighbourhood,37.532063,35.6472874
Geçitli,geçitli,gecitli,Karataş,Adana,osm_overpass,quarter,36.95282,35.6262357
Geçitli Cumhuriyet,geçitli cumhuriyet,gecitli cumhuriyet,Karataş,Adana,osm_overpass,suburb,36.9530412,35.6299777
Gonurlu,gonurlu,gonurlu,Karataş,Adana,osm_overpass,neighbourhood,37.3721183,35.1403981
Göbeören,göbeören,gobeoren,Karataş,Adana,osm_overpass,neighbourhood,36.7235614,35.5258798
Gödebekirli,gödebekirli,godebekirli,Karataş,Adana,osm_overpass,neighbourhood,37.2840922,35.2411794
Gökçeli,gökçeli,gokceli,Karataş,Adana,osm_overpass,suburb,37.8318445,35.8542681
Göztepe,göztepe,goztepe,Karataş,Adana,osm_overpass,suburb,37.0123513,35.4989883
Gülbahçesi,gülbahçesi,gulbahcesi,Karataş,Adana,osm_overpass,suburb,36.9743755,35.298643
Gülpınar,gülpınar,gulpinar,Karataş,Adana,osm_overpass,suburb,36.9810265,35.3097152
Gültepe,gültepe,gultepe,Karataş,Adana,osm_overpass,suburb,37.0367733,35.3949906
Gümüşdere,gümüşdere,gumusdere,Karataş,Adana,osm_overpass,neighbourhood,37.1760364,35.6145784
Güneri,güneri,guneri,Karataş,Adana,osm_overpass,suburb,37.4540585,35.7723413
Güneşli,güneşli,gunesli,Karataş,Adana,osm_overpass,suburb,36.974924,35.3462791
Gürselpaşa,gürselpaşa,gurselpasa,Karataş,Adana,osm_overpass,suburb,37.0207458,35.2722954
Güzel Cumhuriyet,güzel cumhuriyet,guzel cumhuriyet,Karataş,Adana,osm_overpass,suburb,36.9799624,35.4149209
Güzelardıç,güzelardıç,guzelardic,Karataş,Adana,osm_overpass,neighbourhood,37.5387968,34.9431887
Güzelevler,güzelevler,guzelevler,Karataş,Adana,osm_overpass,suburb,36.9760134,35.3894408
Güzelyalı,güzelyalı,guzelyali,Karataş,Adana,osm_overpass,suburb,37.0470729,35.3094964
Hacı Müminler,hacı müminler,haci muminler,Karataş,Adana,osm_overpass,neighbourhood,36.7698974,35.5615176
Hacıhüseyinler,hacıhüseyinler,hacihuseyinler,Karataş,Adana,osm_overpass,neighbourhood,36.7662654,35.5669304
Hacıkerimli,hacıkerimli,hacikerimli,Karataş,Adana,osm_overpass,neighbourhood,37.4782979,35.5723572
Hacımirzalı,hacımirzalı,hacimirzali,Karataş,Adana,osm_overpass,suburb,37.470631,35.8115713
Hacıuşağı,hacıuşağı,haciusagi,Karataş,Adana,osm_overpass,suburb,37.4452824,35.8167593
Hanedan,hanedan,hanedan,Karataş,Adana,osm_overpass,suburb,36.9870599,35.3201007
Hasan Çavuşlar,hasan çavuşlar,hasan cavuslar,Karataş,Adana,osm_overpass,neighbourhood,37.7884036,35.580951
Hasanefendi,hasanefendi,hasanefendi,Karataş,Adana,osm_overpass,neighbourhood,37.1341823,35.5467367
Havraniye Mah.,havraniye,havraniye,Karataş,Adana,osm_overpass,suburb,36.9517723,35.6245489
Havutlu,havutlu,havutlu,Karataş,Adana,osm_overpass,suburb,36.9260329,35.343285
Havuzlubahçe,havuzlubahçe,havuzlubahce,Karataş,Adana,osm_overpass,suburb,36.9756783,35.318942
Haydaroğlu,haydaroğlu,haydaroglu,Karataş,Adana,osm_overpass,suburb,36.9684406,35.3383799
Horzum Yaylası,horzum yaylası,horzum yaylasi,Karataş,Adana,osm_overpass,neighbourhood,37.6272879,35.8492297
Hurmalı,hurmalı,hurmali,Karataş,Adana,osm_overpass,suburb,36.9890824,35.3182125
Huzurevleri,huzurevleri,huzurevleri,Karataş,Adana,osm_overpass,suburb,37.0381461,35.2789157
Hürriyet,hürriyet,hurriyet,Karataş,Adana,osm_overpass,suburb,36.9914361,35.4360103
İkisu,i̇kisu,i̇kisu,Karataş,Adana,osm_overpass,quarter,36.7692653,35.6997838
İnceler,i̇nceler,i̇nceler,Karataş,Adana,osm_overpass,neighbourhood,37.3699611,35.2259552
İncirli,i̇ncirli,i̇ncirli,Karataş,Adana,osm_overpass,neighbourhood,36.8933838,35.9471357
İncirlik,i̇ncirlik,i̇ncirlik,Karataş,Adana,osm_overpass,quarter,36.9929052,35.4399739
İnönü,i̇nönü,i̇nonu,Karataş,Adana,osm_overpass,suburb,37.0453958,35.8191283
İslam Mah.,i̇slam,i̇slam,Karataş,Adana,osm_overpass,suburb,37.8150006,35.9115141
İslamoğlu,i̇slamoğlu,i̇slamoglu,Karataş,Adana,osm_overpass,neighbourhood,37.087355,35.9980304
İsmetpaşa,i̇smetpaşa,i̇smetpasa,Karataş,Adana,osm_overpass,suburb,37.007762,35.287528
İstiklal,i̇stiklal,i̇stiklal,Karataş,Adana,osm_overpass,suburb,37.0448405,35.4570946
Kabasakal,kabasakal,kabasakal,Karataş,Adana,osm_overpass,suburb,37.0556288,35.2268854
Kadirin Çiftliği,kadirin çiftliği,kadirin ciftligi,Karataş,Adana,osm_overpass,neighbourhood,37.1427008,35.5330682
Kale Arkası,kale arkası,kale arkasi,Karataş,Adana,osm_overpass,neighbourhood,37.4101156,35.8018391
Kamışoba,kamışoba,kamisoba,Karataş,Adana,osm_overpass,neighbourhood,37.2930458,35.8355963
Karacaoğlan Mah.,karacaoğlan,karacaoglan,Karataş,Adana,osm_overpass,suburb,37.8138123,35.9143922
Karacauşağı,karacauşağı,karacausagi,Karataş,Adana,osm_overpass,suburb,37.8042911,35.8773565
Karadurdular,karadurdular,karadurdular,Karataş,Adana,osm_overpass,neighbourhood,38.3493427,36.3828862
Karahamzauşağı,karahamzauşağı,karahamzausagi,Karataş,Adana,osm_overpass,neighbourhood,37.3803713,35.0802791
Karahan,karahan,karahan,Karataş,Adana,osm_overpass,suburb,37.0558123,35.1741438
Karalar,karalar,karalar,Karataş,Adana,osm_overpass,neighbourhood,37.1985406,35.263094
Karamanlı,karamanlı,karamanli,Karataş,Adana,osm_overpass,neighbourhood,37.3443173,35.8101189
Karamusalı,karamusalı,karamusali,Karataş,Adana,osm_overpass,neighbourhood,37.5842795,35.8375744
Karaosmanlar,karaosmanlar,karaosmanlar,Karataş,Adana,osm_overpass,neighbourhood,37.3257201,35.763423
Karapınar,karapınar,karapinar,Karataş,Adana,osm_overpass,suburb,37.2571054,35.0601434
Karasoku,karasoku,karasoku,Karataş,Adana,osm_overpass,suburb,36.9853117,35.3273534
Karataş,karataş,karatas,Karataş,Adana,osm_overpass,neighbourhood,37.8443636,35.6149374
Karatepe,karatepe,karatepe,Karataş,Adana,osm_overpass,neighbourhood,36.9085622,35.9337283
Karaçalılık,karaçalılık,karacalilik,Karataş,Adana,osm_overpass,neighbourhood,37.8729987,36.2313115
Karcılar,karcılar,karcilar,Karataş,Adana,osm_overpass,neighbourhood,37.1171186,35.6452945
Kargapazarı,kargapazarı,kargapazari,Karataş,Adana,osm_overpass,neighbourhood,37.671195,36.0010373
Karmış,karmış,karmis,Karataş,Adana,osm_overpass,neighbourhood,37.4148308,35.2365545
Karslılar,karslılar,karslilar,Karataş,Adana,osm_overpass,suburb,37.058692,35.2935969
Karşıyaka,karşıyaka,karsiyaka,Karataş,Adana,osm_overpass,suburb,36.973197,35.5656675
Katarası,katarası,katarasi,Karataş,Adana,osm_overpass,neighbourhood,38.23354,36.3600031
Kavaklı,kavaklı,kavakli,Karataş,Adana,osm_overpass,suburb,37.0004454,35.1980993
Kayalıbağ,kayalıbağ,kayalibag,Karataş,Adana,osm_overpass,suburb,36.9896994,35.3315162
Kayauşağı,kayauşağı,kayausagi,Karataş,Adana,osm_overpass,neighbourhood,37.5475674,35.7128459
Kazancı,kazancı,kazanci,Karataş,Adana,osm_overpass,suburb,37.8082477,35.9377347
Kazım Karabekir,kazım karabekir,kazim karabekir,Karataş,Adana,osm_overpass,suburb,37.0090642,35.3487681
Keklikçi,keklikçi,keklikci,Karataş,Adana,osm_overpass,suburb,37.8367931,35.9117103
Kemaliye,kemaliye,kemaliye,Karataş,Adana,osm_overpass,suburb,36.564615,35.3816755
Kemalpaşa,kemalpaşa,kemalpasa,Karataş,Adana,osm_overpass,suburb,36.9941593,35.4414219
Kesiri,kesiri,kesiri,Karataş,Adana,osm_overpass,neighbourhood,37.2306701,35.1632022
Kevizli,kevizli,kevizli,Karataş,Adana,osm_overpass,neighbourhood,37.3895014,35.1543939
Keçebe,keçebe,kecebe,Karataş,Adana,osm_overpass,neighbourhood,37.1225831,36.028676
Kirazlı,kirazlı,kirazli,Karataş,Adana,osm_overpass,neighbourhood,37.0146595,35.6010754
Kiremithane,kiremithane,kiremithane,Karataş,Adana,osm_overpass,suburb,37.0034438,35.372672
Kireç,kireç,kirec,Karataş,Adana,osm_overpass,neighbourhood,38.148603,36.3205849
Kocaoluk Yaylası,kocaoluk yaylası,kocaoluk yaylasi,Karataş,Adana,osm_overpass,neighbourhood,37.4198845,35.075655
Kocatepe,kocatepe,kocatepe,Karataş,Adana,osm_overpass,suburb,37.1080899,35.1092862
Kocavezir,kocavezir,kocavezir,Karataş,Adana,osm_overpass,suburb,36.9844889,35.3216028
Koltaklı,koltaklı,koltakli,Karataş,Adana,osm_overpass,neighbourhood,37.4697917,35.557766
Konakoğlu,konakoğlu,konakoglu,Karataş,Adana,osm_overpass,suburb,37.0279332,35.812806
Koruklu,koruklu,koruklu,Karataş,Adana,osm_overpass,suburb,37.053796,35.8099034
Koza,koza,koza,Karataş,Adana,osm_overpass,suburb,37.0023986,35.2092222
Kurtoğlu,kurtoğlu,kurtoglu,Karataş,Adana,osm_overpass,neighbourhood,37.349196,35.801053
Kurttepe,kurttepe,kurttepe,Karataş,Adana,osm_overpass,suburb,37.0593667,35.2722461
Kurtuluş,kurtuluş,kurtulus,Karataş,Adana,osm_overpass,suburb,37.4256429,34.8735232
Kuruköprü,kuruköprü,kurukopru,Karataş,Adana,osm_overpass,suburb,36.9883968,35.3232765
Kuzören,kuzören,kuzoren,Karataş,Adana,osm_overpass,neighbourhood,37.5677842,35.7145679
Köleli,köleli,koleli,Karataş,Adana,osm_overpass,neighbourhood,37.8230737,35.9577369
Köpekli,köpekli,kopekli,Karataş,Adana,osm_overpass,neighbourhood,37.3844122,35.1969766
Köprülü,köprülü,koprulu,Karataş,Adana,osm_overpass,suburb,37.0122855,35.3376102
Köşkerli,köşkerli,koskerli,Karataş,Adana,osm_overpass,neighbourhood,37.5324523,35.2546526
Kücük Camuzağlı,kücük camuzağlı,kucuk camuzagli,Karataş,Adana,osm_overpass,neighbourhood,37.2546532,35.8279288
Kürkçüler,kürkçüler,kurkculer,Karataş,Adana,osm_overpass,quarter,36.9897445,35.5092892
Küçükiniş,küçükiniş,kucukinis,Karataş,Adana,osm_overpass,neighbourhood,37.1021905,35.6188291
Küçükkırım,küçükkırım,kucukkirim,Karataş,Adana,osm_overpass,suburb,37.0412707,35.8096609
Küçükçınar,küçükçınar,kucukcinar,Karataş,Adana,osm_overpass,neighbourhood,37.1785295,34.9930016
Kızıldağ Yaylası,kızıldağ yaylası,kizildag yaylasi,Karataş,Adana,osm_overpass,neighbourhood,37.4148741,35.040164
Kızılhöyük,kızılhöyük,kizilhoyuk,Karataş,Adana,osm_overpass,neighbourhood,37.4351694,35.5560708
Kışla,kışla,kisla,Karataş,Adana,osm_overpass,suburb,37.0218115,35.3376102
Levent,levent,levent,Karataş,Adana,osm_overpass,suburb,36.9789695,35.3764915
mahalle,mahalle,mahalle,Karataş,Adana,osm_overpass,neighbourhood,37.2586765,35.2915141
Mahfesığmaz,mahfesığmaz,mahfesigmaz,Karataş,Adana,osm_overpass,suburb,37.0393845,35.3095437
Mahmudiye,mahmudiye,mahmudiye,Karataş,Adana,osm_overpass,quarter,37.217562,35.9760383
Mahmutlu,mahmutlu,mahmutlu,Karataş,Adana,osm_overpass,neighbourhood,37.4334911,35.8371288
Mansurlu Mah.,mansurlu,mansurlu,Karataş,Adana,osm_overpass,suburb,37.5472253,35.3961374
Maran Yaylası,maran yaylası,maran yaylasi,Karataş,Adana,osm_overpass,neighbourhood,37.8349713,35.8144748
Mehmet Akif Ersoy,mehmet akif ersoy,mehmet akif ersoy,Karataş,Adana,osm_overpass,suburb,37.0160091,35.3904277
Mekan,mekan,mekan,Karataş,Adana,osm_overpass,suburb,36.9957966,35.188822
Memi,memi,memi,Karataş,Adana,osm_overpass,neighbourhood,37.4488712,35.8529645
Menteş,menteş,mentes,Karataş,Adana,osm_overpass,neighbourhood,37.2552681,35.6928152
Mestanzade,mestanzade,mestanzade,Karataş,Adana,osm_overpass,suburb,36.9789695,35.3322458
Meydan,meydan,meydan,Karataş,Adana,osm_overpass,suburb,36.9854145,35.3029775
Meydan Yaylası,meydan yaylası,meydan yaylasi,Karataş,Adana,osm_overpass,neighbourhood,37.529536,35.3789055
Mezit,mezit,mezit,Karataş,Adana,osm_overpass,neighbourhood,37.3981702,35.1860332
Mirzaçelebi,mirzaçelebi,mirzacelebi,Karataş,Adana,osm_overpass,suburb,36.9817464,35.3163242
Misis,misis,misis,Karataş,Adana,osm_overpass,quarter,36.9626028,35.6270367
Mithat Paşa,mithat paşa,mithat pasa,Karataş,Adana,osm_overpass,suburb,37.0215837,35.8257141
Mithatpaşa,mithatpaşa,mithatpasa,Karataş,Adana,osm_overpass,suburb,37.0088586,35.301218
Modernevler,modernevler,modernevler,Karataş,Adana,osm_overpass,suburb,37.016838,35.8047714
Mollaömerli,mollaömerli,mollaomerli,Karataş,Adana,osm_overpass,neighbourhood,37.3953318,35.2609527
Muradiye,muradiye,muradiye,Karataş,Adana,osm_overpass,suburb,37.0218236,35.8098354
Mutlu,mutlu,mutlu,Karataş,Adana,osm_overpass,suburb,37.0051003,35.3853648
Müminli,müminli,muminli,Karataş,Adana,osm_overpass,suburb,36.9967222,35.512508
Mıdık,mıdık,midik,Karataş,Adana,osm_overpass,suburb,36.9502348,35.314865
Namık Kemal,namık kemal,namik kemal,Karataş,Adana,osm_overpass,suburb,37.0120406,35.8196416
Narlıca,narlıca,narlica,Karataş,Adana,osm_overpass,suburb,36.9995367,35.2949094
Niğdeliler,niğdeliler,nigdeliler,Karataş,Adana,osm_overpass,neighbourhood,37.1186477,35.5796592
Okurlar,okurlar,okurlar,Karataş,Adana,osm_overpass,neighbourhood,37.0291293,35.5556087
Onur,onur,onur,Karataş,Adana,osm_overpass,suburb,36.9915162,35.2670573
Orhangazi,orhangazi,orhangazi,Karataş,Adana,osm_overpass,suburb,37.0362248,35.4242708
Orta,orta,orta,Karataş,Adana,osm_overpass,neighbourhood,37.3558469,35.7458184
Orta Eğriçam,orta eğriçam,orta egricam,Karataş,Adana,osm_overpass,neighbourhood,37.3675209,35.519777
Ortahüyük,ortahüyük,ortahuyuk,Karataş,Adana,osm_overpass,neighbourhood,37.2906017,35.607845
Ortaoluk,ortaoluk,ortaoluk,Karataş,Adana,osm_overpass,neighbourhood,38.1559409,36.3242993
Osmangazi,osmangazi,osmangazi,Karataş,Adana,osm_overpass,suburb,37.0723571,35.4075704
Ova,ova,ova,Karataş,Adana,osm_overpass,suburb,36.9834262,35.2673148
P.T.T,p.t.t,p.t.t,Karataş,Adana,osm_overpass,suburb,37.0216744,35.3672217
Pınar,pınar,pinar,Karataş,Adana,osm_overpass,suburb,37.0222226,35.2861976
Remzi Oğuz Arık,remzi oğuz arık,remzi oguz arik,Karataş,Adana,osm_overpass,suburb,37.0176763,35.3859562
Reşatbey,reşatbey,resatbey,Karataş,Adana,osm_overpass,suburb,36.9951837,35.332117
Sakarya,sakarya,sakarya,Karataş,Adana,osm_overpass,suburb,36.9949439,35.3004455
Saklı,saklı,sakli,Karataş,Adana,osm_overpass,neighbourhood,37.2225452,35.1411394
Saklıcennet,saklıcennet,saklicennet,Karataş,Adana,osm_overpass,neighbourhood,37.6116478,34.9758446
Sakıztepe,sakıztepe,sakiztepe,Karataş,Adana,osm_overpass,neighbourhood,37.4033949,35.6307112
Salbaş,salbaş,salbas,Karataş,Adana,osm_overpass,quarter,37.1102933,35.112182
Salbaş Esentepe,salbaş esentepe,salbas esentepe,Karataş,Adana,osm_overpass,suburb,37.1190723,35.1239973
Sarıağaç,sarıağaç,sariagac,Karataş,Adana,osm_overpass,neighbourhood,37.4579547,35.5200863
Sarıhamzalı,sarıhamzalı,sarihamzali,Karataş,Adana,osm_overpass,suburb,36.9782976,35.2246829
Sarısakal,sarısakal,sarisakal,Karataş,Adana,osm_overpass,suburb,37.0125204,35.8054366
Sarıyakup,sarıyakup,sariyakup,Karataş,Adana,osm_overpass,suburb,36.9820892,35.329113
Sarıyakuplu,sarıyakuplu,sariyakuplu,Karataş,Adana,osm_overpass,neighbourhood,37.9865742,36.0409498
Sarız,sarız,sariz,Karataş,Adana,osm_overpass,neighbourhood,37.8112758,35.7052714
Sarıçam,sarıçam,saricam,Karataş,Adana,osm_overpass,suburb,36.9925102,35.3540468
Selahattin Eyyubi,selahattin eyyubi,selahattin eyyubi,Karataş,Adana,osm_overpass,suburb,37.0088586,35.3705691
Selampınar,selampınar,selampinar,Karataş,Adana,osm_overpass,suburb,37.2569048,35.0571333
Serinevler,serinevler,serinevler,Karataş,Adana,osm_overpass,suburb,36.8715789,35.244956
Seyhan,seyhan,seyhan,Karataş,Adana,osm_overpass,suburb,36.9658379,35.3328895
Sinanpaşa Mah.,sinanpaşa,sinanpasa,Karataş,Adana,osm_overpass,suburb,37.5465243,35.394306
Sivişli,sivişli,sivisli,Karataş,Adana,osm_overpass,neighbourhood,37.4884633,35.1577865
Sofudede,sofudede,sofudede,Karataş,Adana,osm_overpass,neighbourhood,37.4214724,35.2744183
Solakkadirli,solakkadirli,solakkadirli,Karataş,Adana,osm_overpass,neighbourhood,37.2866181,35.2729902
Solaklı,solaklı,solakli,Karataş,Adana,osm_overpass,quarter,36.8065107,35.336982
Solaklı Cumhuriyet Mah.,solaklı cumhuriyet,solakli cumhuriyet,Karataş,Adana,osm_overpass,suburb,36.8068983,35.3340099
Solaklı Hürriyet Mah.,solaklı hürriyet,solakli hurriyet,Karataş,Adana,osm_overpass,suburb,36.8041136,35.3381261
Soğukoluk,soğukoluk,sogukoluk,Karataş,Adana,osm_overpass,neighbourhood,37.6037773,35.2465975
Sucuzade,sucuzade,sucuzade,Karataş,Adana,osm_overpass,suburb,36.9801694,35.3210449
Suluca,suluca,suluca,Karataş,Adana,osm_overpass,quarter,36.9749005,35.5697393
Söğütlü,söğütlü,sogutlu,Karataş,Adana,osm_overpass,suburb,37.0014904,35.2057876
Sülemişli,sülemişli,sulemisli,Karataş,Adana,osm_overpass,suburb,37.8491756,35.9391385
Sülmen,sülmen,sulmen,Karataş,Adana,osm_overpass,neighbourhood,37.8917637,36.2214625
Sümer,sümer,sumer,Karataş,Adana,osm_overpass,suburb,37.0134506,35.3183841
Sürmeliler,sürmeliler,surmeliler,Karataş,Adana,osm_overpass,neighbourhood,37.3638302,35.1437026
Tabanlı,tabanlı,tabanli,Karataş,Adana,osm_overpass,neighbourhood,37.4206583,35.2140453
Tahsilli,tahsilli,tahsilli,Karataş,Adana,osm_overpass,suburb,37.0002907,35.3587245
Tanrıverdi,tanrıverdi,tanriverdi,Karataş,Adana,osm_overpass,neighbourhood,36.8032888,35.3101659
Tapantepe,tapantepe,tapantepe,Karataş,Adana,osm_overpass,neighbourhood,37.0790919,35.1761734
Tarsuslu,tarsuslu,tarsuslu,Karataş,Adana,osm_overpass,neighbourhood,37.2996096,35.6660145
Tavşantepe,tavşantepe,tavsantepe,Karataş,Adana,osm_overpass,suburb,37.4427539,35.8265
Taş,taş,tas,Karataş,Adana,osm_overpass,suburb,37.444743,35.8148278
Tekdam,tekdam,tekdam,Karataş,Adana,osm_overpass,neighbourhood,37.3154993,35.4949593
Tellidere,tellidere,tellidere,Karataş,Adana,osm_overpass,suburb,37.0223597,35.2968406
Tepebağ,tepebağ,tepebag,Karataş,Adana,osm_overpass,suburb,36.9880197,35.3274822
Toklular,toklular,toklular,Karataş,Adana,osm_overpass,neighbourhood,37.3638875,35.8070132
Topallar,topallar,topallar,Karataş,Adana,osm_overpass,neighbourhood,37.3295495,35.7580591
Topçular,topçular,topcular,Karataş,Adana,osm_overpass,neighbourhood,37.4085509,35.5445479
Toros,toros,toros,Karataş,Adana,osm_overpass,suburb,37.0395088,35.2991442
Torunlar,torunlar,torunlar,Karataş,Adana,osm_overpass,neighbourhood,37.3112498,35.7984728
Tufanli,tufanli,tufanli,Karataş,Adana,osm_overpass,neighbourhood,37.7856663,36.003379
Tufanpaşa,tufanpaşa,tufanpasa,Karataş,Adana,osm_overpass,suburb,37.4514081,35.8157539
Tuna,tuna,tuna,Karataş,Adana,osm_overpass,suburb,37.2580103,35.6638203
Tömek,tömek,tomek,Karataş,Adana,osm_overpass,neighbourhood,37.0497669,35.1232605
Türkeli,türkeli,turkeli,Karataş,Adana,osm_overpass,suburb,37.4637157,35.8281323
Türkocağı,türkocağı,turkocagi,Karataş,Adana,osm_overpass,suburb,36.9819864,35.3333187
Tılan,tılan,tilan,Karataş,Adana,osm_overpass,neighbourhood,37.2952001,35.8081241
Ulubatlı Hasan,ulubatlı hasan,ulubatli hasan,Karataş,Adana,osm_overpass,suburb,37.0050483,35.3807976
Ulucamii,ulucamii,ulucamii,Karataş,Adana,osm_overpass,suburb,36.9852431,35.3318166
Ulus,ulus,ulus,Karataş,Adana,osm_overpass,suburb,37.0271966,35.8236421
Ustahasanlar,ustahasanlar,ustahasanlar,Karataş,Adana,osm_overpass,neighbourhood,37.1138227,35.5291843
Uçak,uçak,ucak,Karataş,Adana,osm_overpass,suburb,36.9854831,35.2785586
Varsaklar,varsaklar,varsaklar,Karataş,Adana,osm_overpass,suburb,37.4474899,35.7925326
Venk,venk,venk,Karataş,Adana,osm_overpass,neighbourhood,37.9629613,36.0237193
Yakapınar,yakapınar,yakapinar,Karataş,Adana,osm_overpass,suburb,36.9586275,35.6084713
Yamaçlı,yamaçlı,yamacli,Karataş,Adana,osm_overpass,suburb,36.9771182,35.3428458
Yarsuat,yarsuat,yarsuat,Karataş,Adana,osm_overpass,suburb,37.0440708,35.8095231
Yarımoğlu,yarımoğlu,yarimoglu,Karataş,Adana,osm_overpass,suburb,37.4429421,35.8149488
Yavuz Sultan Selim,yavuz sultan selim,yavuz sultan selim,Karataş,Adana,osm_overpass,suburb,37.0408505,35.4208235
Yavuzlar,yavuzlar,yavuzlar,Karataş,Adana,osm_overpass,suburb,37.0015931,35.3454208
yayla,yayla,yayla,Karataş,Adana,osm_overpass,neighbourhood,37.4939581,35.3675062
Yağlıören,yağlıören,yaglioren,Karataş,Adana,osm_overpass,neighbourhood,37.404214,35.5763282
Yedigöz,yedigöz,yedigoz,Karataş,Adana,osm_overpass,neighbourhood,37.9229693,35.6161996
Yeni,yeni,yeni,Karataş,Adana,osm_overpass,suburb,36.9862068,35.4371303
Yeni Konacık,yeni konacık,yeni konacik,Karataş,Adana,osm_overpass,suburb,37.4225653,34.8452639
Yeni Mahalle,yeni mahalle,yeni mahalle,Karataş,Adana,osm_overpass,suburb,37.1089745,35.113883
Yenibaraj,yenibaraj,yenibaraj,Karataş,Adana,osm_overpass,suburb,37.0223561,35.3194396
Yenibey,yenibey,yenibey,Karataş,Adana,osm_overpass,suburb,36.970844,35.3263235
Yenicami,yenicami,yenicami,Karataş,Adana,osm_overpass,suburb,38.2638869,36.2219155
Yenidoğan,yenidoğan,yenidogan,Karataş,Adana,osm_overpass,suburb,36.9880883,35.3846454
Yenievler,yenievler,yenievler,Karataş,Adana,osm_overpass,neighbourhood,37.2254668,35.6511712
Yenimahalle,yenimahalle,yenimahalle,Karataş,Adana,osm_overpass,suburb,37.0176312,35.2439688
Yeşil Bağlar,yeşil bağlar,yesil baglar,Karataş,Adana,osm_overpass,suburb,36.9711526,35.3626727
Yeşil Düşmüş Mah.,yeşil düşmüş,yesil dusmus,Karataş,Adana,osm_overpass,suburb,37.8140898,35.9092212
Yeşilbağlar Mah.,yeşilbağlar,yesilbaglar,Karataş,Adana,osm_overpass,suburb,37.9859464,36.0886575
Yeşilevler,yeşilevler,yesilevler,Karataş,Adana,osm_overpass,suburb,37.0035123,35.2841806
Yeşiloba,yeşiloba,yesiloba,Karataş,Adana,osm_overpass,suburb,36.9990569,35.2370166
Yeşilova,yeşilova,yesilova,Karataş,Adana,osm_overpass,quarter,37.2265013,35.7501125
Yeşiltepe,yeşiltepe,yesiltepe,Karataş,Adana,osm_overpass,suburb,37.0335374,35.4061812
Yeşilyurt,yeşilyurt,yesilyurt,Karataş,Adana,osm_overpass,suburb,37.0191389,35.3086852
Yeşilyuva,yeşilyuva,yesilyuva,Karataş,Adana,osm_overpass,suburb,36.9852431,35.3143072
Yukarı Kayhan,yukarı kayhan,yukari kayhan,Karataş,Adana,osm_overpass,neighbourhood,37.3898529,35.8286532
Yunus Emre,yunus emre,yunus emre,Karataş,Adana,osm_overpass,suburb,36.9780439,35.356965
Yunusoğlu,yunusoğlu,yunusoglu,Karataş,Adana,osm_overpass,quarter,36.8156967,35.2781064
Yunusoğlu Cumhuriyet Mah.,yunusoğlu cumhuriyet,yunusoglu cumhuriyet,Karataş,Adana,osm_overpass,suburb,36.8147327,35.2770318
Yunusoğlu Hürriyet,yunusoğlu hürriyet,yunusoglu hurriyet,Karataş,Adana,osm_overpass,suburb,36.8169784,35.278414
Yurt,yurt,yurt,Karataş,Adana,osm_overpass,suburb,37.0421391,35.2876665
Yörükler,yörükler,yorukler,Karataş,Adana,osm_overpass,neighbourhood,37.1588031,35.6046295
Yürekli,yürekli,yurekli,Karataş,Adana,osm_overpass,suburb,36.9884213,35.5103596
Yüzüncüyıl,yüzüncüyıl,yuzuncuyil,Karataş,Adana,osm_overpass,suburb,37.0440515,35.2458702
